%time,Roll,Rollrange,Pitch,Pitchrange,Yaw,Yawrange,Airspeed,Airspeedrange,VelocityX,VelocityXrange,VelocityY,VelocityYrange,VelocityZ,VelocityZrange,Anomaly
1531946412603167351,42.30096054,from - 50 to 47.3,3.062958241,from -19.3 to 22.93,-141.265686,from -177.3 to 179.2,20.18336487,from 12.48 to 24.29,-16.31027222,from -17.05 to 19.73,-14.67173767,from -18.26 to 21.4,-0.625842273,from -8.6 to 5.3,0
1531946412614876619,42.30096054,from - 50 to 47.3,3.062958241,from -19.3 to 22.93,-141.265686,from -177.3 to 179.2,20.02687263,from 12.48 to 24.29,-16.18459702,from -17.05 to 19.73,-14.77465343,from -18.26 to 21.4,-0.6245085,from -8.6 to 5.3,0
1531946412648878160,42.30096054,from - 50 to 47.3,3.062958241,from -19.3 to 22.93,-141.265686,from -177.3 to 179.2,20.02687263,from 12.48 to 24.29,-15.93707752,from -17.05 to 19.73,-14.97302246,from -18.26 to 21.4,-0.587557554,from -8.6 to 5.3,0
1531946412704792882,42.30096054,from - 50 to 47.3,3.062958241,from -19.3 to 22.93,-141.265686,from -177.3 to 179.2,19.83644676,from 12.48 to 24.29,-15.56342411,from -17.05 to 19.73,-15.23521519,from -18.26 to 21.4,-0.489813149,from -8.6 to 5.3,0
1531946412762269786,42.30096054,from - 50 to 47.3,3.062958241,from -19.3 to 22.93,-141.265686,from -177.3 to 179.2,19.83644676,from 12.48 to 24.29,-15.30381584,from -17.05 to 19.73,-15.41399479,from -18.26 to 21.4,-0.422926635,from -8.6 to 5.3,0
1531946412804851782,42.30096054,from - 50 to 47.3,3.062958241,from -19.3 to 22.93,-141.265686,from -177.3 to 179.2,19.64151955,from 12.48 to 24.29,-15.01576328,from -17.05 to 19.73,-15.5983696,from -18.26 to 21.4,-0.381009966,from -8.6 to 5.3,0
1531946412882984118,47.2051239,from - 50 to 47.3,3.055813789,from -19.3 to 22.93,-132.5080719,from -177.3 to 179.2,19.64151955,from 12.48 to 24.29,-14.43472958,from -17.05 to 19.73,-15.9367094,from -18.26 to 21.4,-0.267569751,from -8.6 to 5.3,0
1531946412897906943,47.2051239,from - 50 to 47.3,3.055813789,from -19.3 to 22.93,-132.5080719,from -177.3 to 179.2,19.64151955,from 12.48 to 24.29,-14.27984142,from -17.05 to 19.73,-16.01267242,from -18.26 to 21.4,-0.24576965,from -8.6 to 5.3,0
1531946413006313803,47.2051239,from - 50 to 47.3,3.055813789,from -19.3 to 22.93,-132.5080719,from -177.3 to 179.2,19.55761528,from 12.48 to 24.29,-13.51735497,from -17.05 to 19.73,-16.37812614,from -18.26 to 21.4,-0.138607606,from -8.6 to 5.3,0
1531946413072692466,47.2051239,from - 50 to 47.3,3.055813789,from -19.3 to 22.93,-132.5080719,from -177.3 to 179.2,19.55761528,from 12.48 to 24.29,-12.84774303,from -17.05 to 19.73,-16.66950989,from -18.26 to 21.4,-0.097823687,from -8.6 to 5.3,0
1531946413101401768,47.2051239,from - 50 to 47.3,3.055813789,from -19.3 to 22.93,-132.5080719,from -177.3 to 179.2,19.55761528,from 12.48 to 24.29,-12.66591263,from -17.05 to 19.73,-16.74804306,from -18.26 to 21.4,-0.11043036,from -8.6 to 5.3,0
1531946413150218019,47.2051239,from - 50 to 47.3,3.055813789,from -19.3 to 22.93,-132.5080719,from -177.3 to 179.2,19.65277863,from 12.48 to 24.29,-11.95434093,from -17.05 to 19.73,-17.02215767,from -18.26 to 21.4,-0.111462981,from -8.6 to 5.3,0
1531946413221003669,46.55588913,from - 50 to 47.3,2.90920639,from -19.3 to 22.93,-122.3568268,from -177.3 to 179.2,19.76651764,from 12.48 to 24.29,-11.58448124,from -17.05 to 19.73,-17.15895462,from -18.26 to 21.4,-0.129151836,from -8.6 to 5.3,0
1531946413237766726,46.55588913,from - 50 to 47.3,2.90920639,from -19.3 to 22.93,-122.3568268,from -177.3 to 179.2,19.76651764,from 12.48 to 24.29,-11.40754318,from -17.05 to 19.73,-17.22213936,from -18.26 to 21.4,-0.129527867,from -8.6 to 5.3,0
1531946413293785530,46.55588913,from - 50 to 47.3,2.90920639,from -19.3 to 22.93,-122.3568268,from -177.3 to 179.2,19.76651764,from 12.48 to 24.29,-10.82046318,from -17.05 to 19.73,-17.42012215,from -18.26 to 21.4,-0.166064098,from -8.6 to 5.3,0
1531946413315954129,46.55588913,from - 50 to 47.3,2.90920639,from -19.3 to 22.93,-122.3568268,from -177.3 to 179.2,19.83759689,from 12.48 to 24.29,-10.62663555,from -17.05 to 19.73,-17.47887611,from -18.26 to 21.4,-0.176555708,from -8.6 to 5.3,0
1531946413402866951,46.55588913,from - 50 to 47.3,2.90920639,from -19.3 to 22.93,-122.3568268,from -177.3 to 179.2,19.83759689,from 12.48 to 24.29,-9.889157295,from -17.05 to 19.73,-17.67953491,from -18.26 to 21.4,-0.203283116,from -8.6 to 5.3,0
1531946413412857227,46.55588913,from - 50 to 47.3,2.90920639,from -19.3 to 22.93,-122.3568268,from -177.3 to 179.2,19.75483513,from 12.48 to 24.29,-9.72342968,from -17.05 to 19.73,-17.71829224,from -18.26 to 21.4,-0.199676946,from -8.6 to 5.3,0
1531946413513392801,46.55588913,from - 50 to 47.3,2.90920639,from -19.3 to 22.93,-122.3568268,from -177.3 to 179.2,19.56884384,from 12.48 to 24.29,-9.031153679,from -17.05 to 19.73,-17.86166382,from -18.26 to 21.4,-0.156442419,from -8.6 to 5.3,0
1531946413530342827,46.55588913,from - 50 to 47.3,2.90920639,from -19.3 to 22.93,-122.3568268,from -177.3 to 179.2,19.56884384,from 12.48 to 24.29,-8.862091064,from -17.05 to 19.73,-17.88900375,from -18.26 to 21.4,-0.141277298,from -8.6 to 5.3,0
1531946413562764707,46.55588913,from - 50 to 47.3,2.90920639,from -19.3 to 22.93,-122.3568268,from -177.3 to 179.2,19.56884384,from 12.48 to 24.29,-8.260787964,from -17.05 to 19.73,-17.96165276,from -18.26 to 21.4,-0.03017569,from -8.6 to 5.3,0
1531946413611549582,46.55588913,from - 50 to 47.3,2.90920639,from -19.3 to 22.93,-122.3568268,from -177.3 to 179.2,19.22000504,from 12.48 to 24.29,-8.094975472,from -17.05 to 19.73,-17.98281479,from -18.26 to 21.4,-0.014272043,from -8.6 to 5.3,0
1531946413690925324,43.69140625,from - 50 to 47.3,1.896269679,from -19.3 to 22.93,-108.404129,from -177.3 to 179.2,19.22138977,from 12.48 to 24.29,-7.190347195,from -17.05 to 19.73,-18.09016991,from -18.26 to 21.4,-0.085865952,from -8.6 to 5.3,0
1531946413731927114,43.69140625,from - 50 to 47.3,1.896269679,from -19.3 to 22.93,-108.404129,from -177.3 to 179.2,19.31838036,from 12.48 to 24.29,-6.188336849,from -17.05 to 19.73,-18.18867111,from -18.26 to 21.4,-0.24907276,from -8.6 to 5.3,0
1531946413812375461,43.69140625,from - 50 to 47.3,1.896269679,from -19.3 to 22.93,-108.404129,from -177.3 to 179.2,19.31838036,from 12.48 to 24.29,-5.540769577,from -17.05 to 19.73,-18.23956108,from -18.26 to 21.4,-0.375227898,from -8.6 to 5.3,0
1531946413877407341,43.69140625,from - 50 to 47.3,1.896269679,from -19.3 to 22.93,-108.404129,from -177.3 to 179.2,19.41622162,from 12.48 to 24.29,-4.896499157,from -17.05 to 19.73,-18.25901222,from -18.26 to 21.4,-0.482392222,from -8.6 to 5.3,0
1531946413927596659,43.69140625,from - 50 to 47.3,1.896269679,from -19.3 to 22.93,-108.404129,from -177.3 to 179.2,19.43984032,from 12.48 to 24.29,-4.075334549,from -17.05 to 19.73,-18.25414276,from -18.26 to 21.4,-0.576968133,from -8.6 to 5.3,0
1531946414015481527,43.95882797,from - 50 to 47.3,2.217162132,from -19.3 to 22.93,-99.6541748,from -177.3 to 179.2,19.43984032,from 12.48 to 24.29,-3.282803297,from -17.05 to 19.73,-18.21544838,from -18.26 to 21.4,-0.638746023,from -8.6 to 5.3,0
1531946414099746212,43.95882797,from - 50 to 47.3,2.217162132,from -19.3 to 22.93,-99.6541748,from -177.3 to 179.2,19.32722473,from 12.48 to 24.29,-2.896980286,from -17.05 to 19.73,-18.1824398,from -18.26 to 21.4,-0.664044917,from -8.6 to 5.3,0
1531946414129148291,43.95882797,from - 50 to 47.3,2.217162132,from -19.3 to 22.93,-99.6541748,from -177.3 to 179.2,19.32722473,from 12.48 to 24.29,-2.532067776,from -17.05 to 19.73,-18.14233971,from -18.26 to 21.4,-0.671001792,from -8.6 to 5.3,0
1531946414168900112,43.95882797,from - 50 to 47.3,2.217162132,from -19.3 to 22.93,-99.6541748,from -177.3 to 179.2,19.10271454,from 12.48 to 24.29,-2.179103374,from -17.05 to 19.73,-18.09750938,from -18.26 to 21.4,-0.672999024,from -8.6 to 5.3,0
1531946414214995551,43.95882797,from - 50 to 47.3,2.217162132,from -19.3 to 22.93,-99.6541748,from -177.3 to 179.2,19.10271454,from 12.48 to 24.29,-1.654349685,from -17.05 to 19.73,-18.01388359,from -18.26 to 21.4,-0.676995337,from -8.6 to 5.3,0
1531946414304886266,43.95882797,from - 50 to 47.3,2.217162132,from -19.3 to 22.93,-99.6541748,from -177.3 to 179.2,18.8787117,from 12.48 to 24.29,-0.781944275,from -17.05 to 19.73,-17.83500481,from -18.26 to 21.4,-0.699665427,from -8.6 to 5.3,0
1531946414369664042,43.95882797,from - 50 to 47.3,2.217162132,from -19.3 to 22.93,-99.6541748,from -177.3 to 179.2,18.741436,from 12.48 to 24.29,-0.152532801,from -17.05 to 19.73,-17.6839962,from -18.26 to 21.4,-0.65991652,from -8.6 to 5.3,0
1531946414453088329,43.40819931,from - 50 to 47.3,3.408344269,from -19.3 to 22.93,-88.57471466,from -177.3 to 179.2,18.741436,from 12.48 to 24.29,0.000917593,from -17.05 to 19.73,-17.63463593,from -18.26 to 21.4,-0.64771986,from -8.6 to 5.3,0
1531946414490610100,43.40819931,from - 50 to 47.3,3.408344269,from -19.3 to 22.93,-88.57471466,from -177.3 to 179.2,18.54066467,from 12.48 to 24.29,0.293172926,from -17.05 to 19.73,-17.54332733,from -18.26 to 21.4,-0.620535135,from -8.6 to 5.3,0
1531946414529959010,43.40819931,from - 50 to 47.3,3.408344269,from -19.3 to 22.93,-88.57471466,from -177.3 to 179.2,18.54066467,from 12.48 to 24.29,0.802299678,from -17.05 to 19.73,-17.36466789,from -18.26 to 21.4,-0.538373113,from -8.6 to 5.3,0
1531946414563875583,43.40819931,from - 50 to 47.3,3.408344269,from -19.3 to 22.93,-88.57471466,from -177.3 to 179.2,18.24806595,from 12.48 to 24.29,0.926056862,from -17.05 to 19.73,-17.32040596,from -18.26 to 21.4,-0.513258278,from -8.6 to 5.3,0
1531946414616439628,43.40819931,from - 50 to 47.3,3.408344269,from -19.3 to 22.93,-88.57471466,from -177.3 to 179.2,18.24806595,from 12.48 to 24.29,1.29353404,from -17.05 to 19.73,-17.17473602,from -18.26 to 21.4,-0.445388436,from -8.6 to 5.3,0
1531946414683084465,43.40819931,from - 50 to 47.3,3.408344269,from -19.3 to 22.93,-88.57471466,from -177.3 to 179.2,18.24806595,from 12.48 to 24.29,1.419564605,from -17.05 to 19.73,-17.12061501,from -18.26 to 21.4,-0.428334653,from -8.6 to 5.3,0
1531946414702725656,43.40819931,from - 50 to 47.3,3.408344269,from -19.3 to 22.93,-88.57471466,from -177.3 to 179.2,18.14540863,from 12.48 to 24.29,1.912415624,from -17.05 to 19.73,-16.91000938,from -18.26 to 21.4,-0.333699882,from -8.6 to 5.3,0
1531946414779549051,43.40819931,from - 50 to 47.3,3.408344269,from -19.3 to 22.93,-88.57471466,from -177.3 to 179.2,17.98715591,from 12.48 to 24.29,2.149055958,from -17.05 to 19.73,-16.80393982,from -18.26 to 21.4,-0.268751323,from -8.6 to 5.3,0
1531946414796637159,40.89239502,from - 50 to 47.3,1.154791236,from -19.3 to 22.93,-79.61325073,from -177.3 to 179.2,17.98715591,from 12.48 to 24.29,2.384188414,from -17.05 to 19.73,-16.69739532,from -18.26 to 21.4,-0.191634849,from -8.6 to 5.3,0
1531946414832278454,40.89239502,from - 50 to 47.3,1.154791236,from -19.3 to 22.93,-79.61325073,from -177.3 to 179.2,17.82185745,from 12.48 to 24.29,2.727427721,from -17.05 to 19.73,-16.52431679,from -18.26 to 21.4,-0.082664132,from -8.6 to 5.3,0
1531946414922404225,40.89239502,from - 50 to 47.3,1.154791236,from -19.3 to 22.93,-79.61325073,from -177.3 to 179.2,17.82185745,from 12.48 to 24.29,3.083650589,from -17.05 to 19.73,-16.35063362,from -18.26 to 21.4,0.003994877,from -8.6 to 5.3,0
1531946414966751571,40.89239502,from - 50 to 47.3,1.154791236,from -19.3 to 22.93,-79.61325073,from -177.3 to 179.2,17.71739006,from 12.48 to 24.29,3.327701092,from -17.05 to 19.73,-16.23498726,from -18.26 to 21.4,0.054352816,from -8.6 to 5.3,0
1531946415009227212,40.89239502,from - 50 to 47.3,1.154791236,from -19.3 to 22.93,-79.61325073,from -177.3 to 179.2,17.71739006,from 12.48 to 24.29,3.707983494,from -17.05 to 19.73,-16.0519352,from -18.26 to 21.4,0.122784168,from -8.6 to 5.3,0
1531946415090864988,40.89239502,from - 50 to 47.3,1.154791236,from -19.3 to 22.93,-79.61325073,from -177.3 to 179.2,17.70894241,from 12.48 to 24.29,3.97236681,from -17.05 to 19.73,-15.9188261,from -18.26 to 21.4,0.166140229,from -8.6 to 5.3,0
1531946415123839993,40.89239502,from - 50 to 47.3,1.154791236,from -19.3 to 22.93,-79.61325073,from -177.3 to 179.2,17.70894241,from 12.48 to 24.29,4.368949413,from -17.05 to 19.73,-15.71414375,from -18.26 to 21.4,0.233084381,from -8.6 to 5.3,0
1531946415151228509,42.39384079,from - 50 to 47.3,-2.203671932,from -19.3 to 22.93,-69.1727066,from -177.3 to 179.2,17.70894241,from 12.48 to 24.29,4.497321129,from -17.05 to 19.73,-15.64653778,from -18.26 to 21.4,0.262611806,from -8.6 to 5.3,0
1531946415190440298,42.39384079,from - 50 to 47.3,-2.203671932,from -19.3 to 22.93,-69.1727066,from -177.3 to 179.2,17.64614105,from 12.48 to 24.29,4.877561092,from -17.05 to 19.73,-15.4411974,from -18.26 to 21.4,0.359043002,from -8.6 to 5.3,0
1531946415249269907,42.39384079,from - 50 to 47.3,-2.203671932,from -19.3 to 22.93,-69.1727066,from -177.3 to 179.2,17.55978966,from 12.48 to 24.29,5.37838316,from -17.05 to 19.73,-15.14004326,from -18.26 to 21.4,0.48015669,from -8.6 to 5.3,0
1531946415330228992,42.39384079,from - 50 to 47.3,-2.203671932,from -19.3 to 22.93,-69.1727066,from -177.3 to 179.2,17.55978966,from 12.48 to 24.29,5.631336689,from -17.05 to 19.73,-14.98433876,from -18.26 to 21.4,0.543385923,from -8.6 to 5.3,0
1531946415377079318,42.39384079,from - 50 to 47.3,-2.203671932,from -19.3 to 22.93,-69.1727066,from -177.3 to 179.2,17.56195641,from 12.48 to 24.29,5.880803585,from -17.05 to 19.73,-14.82691097,from -18.26 to 21.4,0.602317214,from -8.6 to 5.3,0
1531946415416277661,42.39384079,from - 50 to 47.3,-2.203671932,from -19.3 to 22.93,-69.1727066,from -177.3 to 179.2,17.56195641,from 12.48 to 24.29,6.271058083,from -17.05 to 19.73,-14.57433987,from -18.26 to 21.4,0.684524119,from -8.6 to 5.3,0
1531946415443892779,42.39384079,from - 50 to 47.3,-2.203671932,from -19.3 to 22.93,-69.1727066,from -177.3 to 179.2,17.56195641,from 12.48 to 24.29,6.390800476,from -17.05 to 19.73,-14.49202442,from -18.26 to 21.4,0.705199182,from -8.6 to 5.3,0
1531946415515076154,42.39384079,from - 50 to 47.3,-2.203671932,from -19.3 to 22.93,-69.1727066,from -177.3 to 179.2,17.63170624,from 12.48 to 24.29,7.20520401,from -17.05 to 19.73,-13.92781067,from -18.26 to 21.4,0.788299739,from -8.6 to 5.3,0
1531946415621415570,43.57593918,from - 50 to 47.3,-2.775096178,from -19.3 to 22.93,-59.77410126,from -177.3 to 179.2,17.63170624,from 12.48 to 24.29,7.469330311,from -17.05 to 19.73,-13.73533821,from -18.26 to 21.4,0.820950687,from -8.6 to 5.3,0
1531946415649629084,43.57593918,from - 50 to 47.3,-2.775096178,from -19.3 to 22.93,-59.77410126,from -177.3 to 179.2,17.59388161,from 12.48 to 24.29,7.848831654,from -17.05 to 19.73,-13.43236542,from -18.26 to 21.4,0.882830083,from -8.6 to 5.3,0
1531946415715501716,43.57593918,from - 50 to 47.3,-2.775096178,from -19.3 to 22.93,-59.77410126,from -177.3 to 179.2,17.59388161,from 12.48 to 24.29,8.363404274,from -17.05 to 19.73,-13.0128746,from -18.26 to 21.4,0.936210454,from -8.6 to 5.3,0
1531946415766161593,43.57593918,from - 50 to 47.3,-2.775096178,from -19.3 to 22.93,-59.77410126,from -177.3 to 179.2,17.66839218,from 12.48 to 24.29,8.752837181,from -17.05 to 19.73,-12.6898241,from -18.26 to 21.4,0.964063942,from -8.6 to 5.3,0
1531946415811010264,43.57593918,from - 50 to 47.3,-2.775096178,from -19.3 to 22.93,-59.77410126,from -177.3 to 179.2,17.66839218,from 12.48 to 24.29,8.883152962,from -17.05 to 19.73,-12.57345104,from -18.26 to 21.4,0.969188392,from -8.6 to 5.3,0
1531946415854414635,43.57593918,from - 50 to 47.3,-2.775096178,from -19.3 to 22.93,-59.77410126,from -177.3 to 179.2,17.71089935,from 12.48 to 24.29,9.120520592,from -17.05 to 19.73,-12.35354614,from -18.26 to 21.4,0.994630396,from -8.6 to 5.3,0
1531946415879027689,43.57593918,from - 50 to 47.3,-2.775096178,from -19.3 to 22.93,-59.77410126,from -177.3 to 179.2,17.71089935,from 12.48 to 24.29,9.352966309,from -17.05 to 19.73,-12.12741375,from -18.26 to 21.4,1.040697455,from -8.6 to 5.3,0
1531946415933942161,43.57593918,from - 50 to 47.3,-2.775096178,from -19.3 to 22.93,-59.77410126,from -177.3 to 179.2,17.66546249,from 12.48 to 24.29,9.692501068,from -17.05 to 19.73,-11.79175949,from -18.26 to 21.4,1.093170881,from -8.6 to 5.3,0
1531946415956857449,43.57593918,from - 50 to 47.3,-2.775096178,from -19.3 to 22.93,-59.77410126,from -177.3 to 179.2,17.66546249,from 12.48 to 24.29,10.12524033,from -17.05 to 19.73,-11.33088398,from -18.26 to 21.4,1.158552408,from -8.6 to 5.3,0
1531946416014956088,44.5698204,from - 50 to 47.3,-2.208956003,from -19.3 to 22.93,-48.80282974,from -177.3 to 179.2,17.74298859,from 12.48 to 24.29,10.67435932,from -17.05 to 19.73,-10.71687031,from -18.26 to 21.4,1.191082358,from -8.6 to 5.3,0
1531946416104597149,44.5698204,from - 50 to 47.3,-2.208956003,from -19.3 to 22.93,-48.80282974,from -177.3 to 179.2,17.79333115,from 12.48 to 24.29,10.98911285,from -17.05 to 19.73,-10.35173607,from -18.26 to 21.4,1.182431936,from -8.6 to 5.3,0
1531946416213815242,44.5698204,from - 50 to 47.3,-2.208956003,from -19.3 to 22.93,-48.80282974,from -177.3 to 179.2,17.79333115,from 12.48 to 24.29,11.1968565,from -17.05 to 19.73,-10.09203243,from -18.26 to 21.4,1.154316187,from -8.6 to 5.3,0
1531946416259633270,44.5698204,from - 50 to 47.3,-2.208956003,from -19.3 to 22.93,-48.80282974,from -177.3 to 179.2,17.94711494,from 12.48 to 24.29,11.48571682,from -17.05 to 19.73,-9.715224266,from -18.26 to 21.4,1.121391296,from -8.6 to 5.3,0
1531946416295236947,44.5698204,from - 50 to 47.3,-2.208956003,from -19.3 to 22.93,-48.80282974,from -177.3 to 179.2,17.94711494,from 12.48 to 24.29,11.65067196,from -17.05 to 19.73,-9.475791931,from -18.26 to 21.4,1.122033238,from -8.6 to 5.3,0
1531946416348918706,44.5698204,from - 50 to 47.3,-2.208956003,from -19.3 to 22.93,-48.80282974,from -177.3 to 179.2,17.99243164,from 12.48 to 24.29,11.88959885,from -17.05 to 19.73,-9.112697601,from -18.26 to 21.4,1.129124403,from -8.6 to 5.3,0
1531946416399922618,44.5698204,from - 50 to 47.3,-2.208956003,from -19.3 to 22.93,-48.80282974,from -177.3 to 179.2,17.99243164,from 12.48 to 24.29,12.03691387,from -17.05 to 19.73,-8.86020565,from -18.26 to 21.4,1.144304633,from -8.6 to 5.3,0
1531946416454019774,38.10742569,from - 50 to 47.3,-3.129409552,from -19.3 to 22.93,-36.21803284,from -177.3 to 179.2,17.94449043,from 12.48 to 24.29,12.26090431,from -17.05 to 19.73,-8.472352028,from -18.26 to 21.4,1.152163148,from -8.6 to 5.3,0
1531946416501359099,38.10742569,from - 50 to 47.3,-3.129409552,from -19.3 to 22.93,-36.21803284,from -177.3 to 179.2,17.96826172,from 12.48 to 24.29,12.41252136,from -17.05 to 19.73,-8.207619667,from -18.26 to 21.4,1.143067479,from -8.6 to 5.3,0
1531946416538528799,38.10742569,from - 50 to 47.3,-3.129409552,from -19.3 to 22.93,-36.21803284,from -177.3 to 179.2,17.96826172,from 12.48 to 24.29,12.55808258,from -17.05 to 19.73,-7.950481415,from -18.26 to 21.4,1.136982679,from -8.6 to 5.3,0
1531946416598206907,38.10742569,from - 50 to 47.3,-3.129409552,from -19.3 to 22.93,-36.21803284,from -177.3 to 179.2,18.05934525,from 12.48 to 24.29,12.81058884,from -17.05 to 19.73,-7.434777737,from -18.26 to 21.4,1.126072526,from -8.6 to 5.3,0
1531946416630574873,38.10742569,from - 50 to 47.3,-3.129409552,from -19.3 to 22.93,-36.21803284,from -177.3 to 179.2,18.05934525,from 12.48 to 24.29,12.93199539,from -17.05 to 19.73,-7.166807652,from -18.26 to 21.4,1.120412111,from -8.6 to 5.3,0
1531946416725582928,38.10742569,from - 50 to 47.3,-3.129409552,from -19.3 to 22.93,-36.21803284,from -177.3 to 179.2,18.10794258,from 12.48 to 24.29,13.11769581,from -17.05 to 19.73,-6.742274761,from -18.26 to 21.4,1.096117616,from -8.6 to 5.3,0
1531946416739463050,38.10742569,from - 50 to 47.3,-3.129409552,from -19.3 to 22.93,-36.21803284,from -177.3 to 179.2,18.10794258,from 12.48 to 24.29,13.25222301,from -17.05 to 19.73,-6.434464455,from -18.26 to 21.4,1.087281585,from -8.6 to 5.3,0
1531946416760616543,37.88497543,from - 50 to 47.3,-3.192230225,from -19.3 to 22.93,-27.33269882,from -177.3 to 179.2,18.10794258,from 12.48 to 24.29,13.31628609,from -17.05 to 19.73,-6.259027958,from -18.26 to 21.4,1.071504712,from -8.6 to 5.3,0
1531946416824792337,37.88497543,from - 50 to 47.3,-3.192230225,from -19.3 to 22.93,-27.33269882,from -177.3 to 179.2,18.30330467,from 12.48 to 24.29,13.44631958,from -17.05 to 19.73,-5.914080143,from -18.26 to 21.4,1.06192112,from -8.6 to 5.3,0
1531946416854210903,37.88497543,from - 50 to 47.3,-3.192230225,from -19.3 to 22.93,-27.33269882,from -177.3 to 179.2,18.30330467,from 12.48 to 24.29,13.62442684,from -17.05 to 19.73,-5.411694527,from -18.26 to 21.4,1.071624875,from -8.6 to 5.3,0
1531946416883241798,37.88497543,from - 50 to 47.3,-3.192230225,from -19.3 to 22.93,-27.33269882,from -177.3 to 179.2,18.14242554,from 12.48 to 24.29,13.73286724,from -17.05 to 19.73,-5.085648537,from -18.26 to 21.4,1.093004823,from -8.6 to 5.3,0
1531946416924033504,37.88497543,from - 50 to 47.3,-3.192230225,from -19.3 to 22.93,-27.33269882,from -177.3 to 179.2,18.00004005,from 12.48 to 24.29,13.9876194,from -17.05 to 19.73,-4.222118378,from -18.26 to 21.4,1.139069915,from -8.6 to 5.3,0
1531946416973761323,37.88497543,from - 50 to 47.3,-3.192230225,from -19.3 to 22.93,-27.33269882,from -177.3 to 179.2,18.00004005,from 12.48 to 24.29,14.12958527,from -17.05 to 19.73,-3.668996334,from -18.26 to 21.4,1.187512875,from -8.6 to 5.3,0
1531946417028313447,37.88497543,from - 50 to 47.3,-3.192230225,from -19.3 to 22.93,-27.33269882,from -177.3 to 179.2,17.89466095,from 12.48 to 24.29,14.21016979,from -17.05 to 19.73,-3.323438644,from -18.26 to 21.4,1.229828596,from -8.6 to 5.3,0
1531946417120727631,37.88497543,from - 50 to 47.3,-3.192230225,from -19.3 to 22.93,-27.33269882,from -177.3 to 179.2,17.89466095,from 12.48 to 24.29,14.28128147,from -17.05 to 19.73,-2.988271475,from -18.26 to 21.4,1.277915478,from -8.6 to 5.3,0
1531946417172673430,45.81355286,from - 50 to 47.3,-2.132096529,from -19.3 to 22.93,-16.47406387,from -177.3 to 179.2,17.5975399,from 12.48 to 24.29,14.36485004,from -17.05 to 19.73,-2.460510731,from -18.26 to 21.4,1.36531651,from -8.6 to 5.3,0
1531946417207778663,45.81355286,from - 50 to 47.3,-2.132096529,from -19.3 to 22.93,-16.47406387,from -177.3 to 179.2,17.5975399,from 12.48 to 24.29,14.41368198,from -17.05 to 19.73,-2.11285162,from -18.26 to 21.4,1.424087644,from -8.6 to 5.3,0
1531946417259100902,45.81355286,from - 50 to 47.3,-2.132096529,from -19.3 to 22.93,-16.47406387,from -177.3 to 179.2,17.44408035,from 12.48 to 24.29,14.51788521,from -17.05 to 19.73,-1.392573118,from -18.26 to 21.4,1.477301002,from -8.6 to 5.3,0
1531946417321702990,45.81355286,from - 50 to 47.3,-2.132096529,from -19.3 to 22.93,-16.47406387,from -177.3 to 179.2,17.44408035,from 12.48 to 24.29,14.56622887,from -17.05 to 19.73,-0.880020082,from -18.26 to 21.4,1.51399982,from -8.6 to 5.3,0
1531946417348419410,45.81355286,from - 50 to 47.3,-2.132096529,from -19.3 to 22.93,-16.47406387,from -177.3 to 179.2,17.25928688,from 12.48 to 24.29,14.61919785,from -17.05 to 19.73,-0.205756903,from -18.26 to 21.4,1.533778548,from -8.6 to 5.3,0
1531946417406730629,45.81355286,from - 50 to 47.3,-2.132096529,from -19.3 to 22.93,-16.47406387,from -177.3 to 179.2,17.21138763,from 12.48 to 24.29,14.63869572,from -17.05 to 19.73,0.115534291,from -18.26 to 21.4,1.53241837,from -8.6 to 5.3,0
1531946417509843458,45.71221161,from - 50 to 47.3,-0.616090357,from -19.3 to 22.93,-9.002571106,from -177.3 to 179.2,17.21138763,from 12.48 to 24.29,14.65925598,from -17.05 to 19.73,0.618740857,from -18.26 to 21.4,1.527395129,from -8.6 to 5.3,0
1531946417576519030,45.71221161,from - 50 to 47.3,-0.616090357,from -19.3 to 22.93,-9.002571106,from -177.3 to 179.2,17.21138763,from 12.48 to 24.29,14.65846157,from -17.05 to 19.73,0.786947906,from -18.26 to 21.4,1.52728653,from -8.6 to 5.3,0
1531946417610507093,45.71221161,from - 50 to 47.3,-0.616090357,from -19.3 to 22.93,-9.002571106,from -177.3 to 179.2,17.21990967,from 12.48 to 24.29,14.65869808,from -17.05 to 19.73,1.111984015,from -18.26 to 21.4,1.542085409,from -8.6 to 5.3,0
1531946417692011172,45.71221161,from - 50 to 47.3,-0.616090357,from -19.3 to 22.93,-9.002571106,from -177.3 to 179.2,17.21990967,from 12.48 to 24.29,14.64630795,from -17.05 to 19.73,1.614853144,from -18.26 to 21.4,1.561172724,from -8.6 to 5.3,0
1531946417713657763,45.71221161,from - 50 to 47.3,-0.616090357,from -19.3 to 22.93,-9.002571106,from -177.3 to 179.2,17.20680618,from 12.48 to 24.29,14.64318085,from -17.05 to 19.73,1.773058295,from -18.26 to 21.4,1.554270864,from -8.6 to 5.3,0
1531946417734848426,45.71221161,from - 50 to 47.3,-0.616090357,from -19.3 to 22.93,-9.002571106,from -177.3 to 179.2,17.20680618,from 12.48 to 24.29,14.6163435,from -17.05 to 19.73,2.29189992,from -18.26 to 21.4,1.524087548,from -8.6 to 5.3,0
1531946417809885981,45.71221161,from - 50 to 47.3,-0.616090357,from -19.3 to 22.93,-9.002571106,from -177.3 to 179.2,17.33127022,from 12.48 to 24.29,14.57332611,from -17.05 to 19.73,2.798815489,from -18.26 to 21.4,1.494067788,from -8.6 to 5.3,0
1531946417826878876,45.71221161,from - 50 to 47.3,-0.616090357,from -19.3 to 22.93,-9.002571106,from -177.3 to 179.2,17.33127022,from 12.48 to 24.29,14.54148388,from -17.05 to 19.73,3.108352661,from -18.26 to 21.4,1.498474121,from -8.6 to 5.3,0
1531946417901145698,45.71221161,from - 50 to 47.3,-0.616090357,from -19.3 to 22.93,-9.002571106,from -177.3 to 179.2,17.47988701,from 12.48 to 24.29,14.50272274,from -17.05 to 19.73,3.419155359,from -18.26 to 21.4,1.497998595,from -8.6 to 5.3,0
1531946417920268948,41.92175293,from - 50 to 47.3,-1.872589588,from -19.3 to 22.93,4.036832333,from -177.3 to 179.2,17.4227314,from 12.48 to 24.29,14.4075079,from -17.05 to 19.73,4.08237648,from -18.26 to 21.4,1.494251251,from -8.6 to 5.3,0
1531946417971167018,41.92175293,from - 50 to 47.3,-1.872589588,from -19.3 to 22.93,4.036832333,from -177.3 to 179.2,17.4227314,from 12.48 to 24.29,14.38002586,from -17.05 to 19.73,4.253381729,from -18.26 to 21.4,1.482764244,from -8.6 to 5.3,0
1531946418025905630,41.92175293,from - 50 to 47.3,-1.872589588,from -19.3 to 22.93,4.036832333,from -177.3 to 179.2,17.4227314,from 12.48 to 24.29,14.25580215,from -17.05 to 19.73,4.922587872,from -18.26 to 21.4,1.411991239,from -8.6 to 5.3,0
1531946418104579567,41.92175293,from - 50 to 47.3,-1.872589588,from -19.3 to 22.93,4.036832333,from -177.3 to 179.2,17.58947945,from 12.48 to 24.29,14.1890316,from -17.05 to 19.73,5.226279736,from -18.26 to 21.4,1.397452354,from -8.6 to 5.3,0
1531946418127730103,41.92175293,from - 50 to 47.3,-1.872589588,from -19.3 to 22.93,4.036832333,from -177.3 to 179.2,17.61945915,from 12.48 to 24.29,14.00348473,from -17.05 to 19.73,5.866291523,from -18.26 to 21.4,1.410805345,from -8.6 to 5.3,0
1531946418203390803,41.92175293,from - 50 to 47.3,-1.872589588,from -19.3 to 22.93,4.036832333,from -177.3 to 179.2,17.61945915,from 12.48 to 24.29,13.89527798,from -17.05 to 19.73,6.170370579,from -18.26 to 21.4,1.446231723,from -8.6 to 5.3,0
1531946418240853250,41.92175293,from - 50 to 47.3,-1.872589588,from -19.3 to 22.93,4.036832333,from -177.3 to 179.2,17.52182198,from 12.48 to 24.29,13.78626251,from -17.05 to 19.73,6.454754829,from -18.26 to 21.4,1.495392442,from -8.6 to 5.3,0
1531946418319567878,41.92175293,from - 50 to 47.3,-1.872589588,from -19.3 to 22.93,4.036832333,from -177.3 to 179.2,17.52182198,from 12.48 to 24.29,13.55236053,from -17.05 to 19.73,7.013449669,from -18.26 to 21.4,1.597890854,from -8.6 to 5.3,0
1531946418369334979,40.70137405,from - 50 to 47.3,-4.410207748,from -19.3 to 22.93,20.57678032,from -177.3 to 179.2,17.29873848,from 12.48 to 24.29,13.4130373,from -17.05 to 19.73,7.317747593,from -18.26 to 21.4,1.631096721,from -8.6 to 5.3,0
1531946418403126597,40.70137405,from - 50 to 47.3,-4.410207748,from -19.3 to 22.93,20.57678032,from -177.3 to 179.2,17.29873848,from 12.48 to 24.29,13.17560482,from -17.05 to 19.73,7.815881252,from -18.26 to 21.4,1.629301429,from -8.6 to 5.3,0
1531946418481786671,40.70137405,from - 50 to 47.3,-4.410207748,from -19.3 to 22.93,20.57678032,from -177.3 to 179.2,17.41470718,from 12.48 to 24.29,13.00896263,from -17.05 to 19.73,8.152169228,from -18.26 to 21.4,1.594836831,from -8.6 to 5.3,0
1531946418517521675,40.70137405,from - 50 to 47.3,-4.410207748,from -19.3 to 22.93,20.57678032,from -177.3 to 179.2,17.59420204,from 12.48 to 24.29,12.47851944,from -17.05 to 19.73,9.084310532,from -18.26 to 21.4,1.42619729,from -8.6 to 5.3,0
1531946418567536798,40.70137405,from - 50 to 47.3,-4.410207748,from -19.3 to 22.93,20.57678032,from -177.3 to 179.2,17.59420204,from 12.48 to 24.29,12.27917194,from -17.05 to 19.73,9.389465332,from -18.26 to 21.4,1.363138914,from -8.6 to 5.3,0
1531946418621743637,40.70137405,from - 50 to 47.3,-4.410207748,from -19.3 to 22.93,20.57678032,from -177.3 to 179.2,17.80771065,from 12.48 to 24.29,12.17768192,from -17.05 to 19.73,9.540534019,from -18.26 to 21.4,1.319430947,from -8.6 to 5.3,0
1531946418740794909,40.70137405,from - 50 to 47.3,-4.410207748,from -19.3 to 22.93,20.57678032,from -177.3 to 179.2,17.80771065,from 12.48 to 24.29,11.87851524,from -17.05 to 19.73,9.97931385,from -18.26 to 21.4,1.161749125,from -8.6 to 5.3,0
1531946418781765772,40.70137405,from - 50 to 47.3,-4.410207748,from -19.3 to 22.93,20.57678032,from -177.3 to 179.2,17.9189682,from 12.48 to 24.29,11.43640804,from -17.05 to 19.73,10.54210758,from -18.26 to 21.4,0.94011718,from -8.6 to 5.3,0
1531946418815576119,40.70137405,from - 50 to 47.3,-4.410207748,from -19.3 to 22.93,20.57678032,from -177.3 to 179.2,17.9189682,from 12.48 to 24.29,11.33262253,from -17.05 to 19.73,10.66478157,from -18.26 to 21.4,0.892539918,from -8.6 to 5.3,0
1531946418851244178,37.57397842,from - 50 to 47.3,-1.657369971,from -19.3 to 22.93,35.14682007,from -177.3 to 179.2,18.00240326,from 12.48 to 24.29,11.01319599,from -17.05 to 19.73,11.02182674,from -18.26 to 21.4,0.748497963,from -8.6 to 5.3,0
1531946418937060096,37.57397842,from - 50 to 47.3,-1.657369971,from -19.3 to 22.93,35.14682007,from -177.3 to 179.2,18.00240326,from 12.48 to 24.29,10.81334114,from -17.05 to 19.73,11.23897457,from -18.26 to 21.4,0.64251709,from -8.6 to 5.3,0
1531946418961201631,37.57397842,from - 50 to 47.3,-1.657369971,from -19.3 to 22.93,35.14682007,from -177.3 to 179.2,17.98383713,from 12.48 to 24.29,10.48731709,from -17.05 to 19.73,11.55875492,from -18.26 to 21.4,0.451989621,from -8.6 to 5.3,0
1531946419021083803,37.57397842,from - 50 to 47.3,-1.657369971,from -19.3 to 22.93,35.14682007,from -177.3 to 179.2,17.98383713,from 12.48 to 24.29,10.26911259,from -17.05 to 19.73,11.7636652,from -18.26 to 21.4,0.320283622,from -8.6 to 5.3,0
1531946419061280412,37.57397842,from - 50 to 47.3,-1.657369971,from -19.3 to 22.93,35.14682007,from -177.3 to 179.2,17.95743752,from 12.48 to 24.29,9.945033073,from -17.05 to 19.73,12.04919529,from -18.26 to 21.4,0.147702113,from -8.6 to 5.3,0
1531946419128501363,37.57397842,from - 50 to 47.3,-1.657369971,from -19.3 to 22.93,35.14682007,from -177.3 to 179.2,17.95743752,from 12.48 to 24.29,9.495304108,from -17.05 to 19.73,12.39714718,from -18.26 to 21.4,-0.099248283,from -8.6 to 5.3,0
1531946419162528580,37.57397842,from - 50 to 47.3,-1.657369971,from -19.3 to 22.93,35.14682007,from -177.3 to 179.2,17.95414543,from 12.48 to 24.29,9.385969162,from -17.05 to 19.73,12.47741985,from -18.26 to 21.4,-0.154603168,from -8.6 to 5.3,0
1531946419190835130,30.39818382,from - 50 to 47.3,1.55046463,from -19.3 to 22.93,44.8105278,from -177.3 to 179.2,17.95414543,from 12.48 to 24.29,9.063688278,from -17.05 to 19.73,12.69000435,from -18.26 to 21.4,-0.305278599,from -8.6 to 5.3,0
1531946419291488072,30.39818382,from - 50 to 47.3,1.55046463,from -19.3 to 22.93,44.8105278,from -177.3 to 179.2,17.8717041,from 12.48 to 24.29,8.857605934,from -17.05 to 19.73,12.81976032,from -18.26 to 21.4,-0.400343239,from -8.6 to 5.3,0
1531946419331682663,30.39818382,from - 50 to 47.3,1.55046463,from -19.3 to 22.93,44.8105278,from -177.3 to 179.2,17.8717041,from 12.48 to 24.29,8.537290573,from -17.05 to 19.73,13.00306225,from -18.26 to 21.4,-0.553261459,from -8.6 to 5.3,0
1531946419372730172,30.39818382,from - 50 to 47.3,1.55046463,from -19.3 to 22.93,44.8105278,from -177.3 to 179.2,17.76903152,from 12.48 to 24.29,8.32965374,from -17.05 to 19.73,13.11174488,from -18.26 to 21.4,-0.655821621,from -8.6 to 5.3,0
1531946419408718127,30.39818382,from - 50 to 47.3,1.55046463,from -19.3 to 22.93,44.8105278,from -177.3 to 179.2,17.76903152,from 12.48 to 24.29,8.021092415,from -17.05 to 19.73,13.26046944,from -18.26 to 21.4,-0.800682545,from -8.6 to 5.3,0
1531946419493431634,30.39818382,from - 50 to 47.3,1.55046463,from -19.3 to 22.93,44.8105278,from -177.3 to 179.2,17.70788765,from 12.48 to 24.29,7.826020718,from -17.05 to 19.73,13.34860134,from -18.26 to 21.4,-0.885574698,from -8.6 to 5.3,0
1531946419518688417,30.39818382,from - 50 to 47.3,1.55046463,from -19.3 to 22.93,44.8105278,from -177.3 to 179.2,17.70788765,from 12.48 to 24.29,7.63577652,from -17.05 to 19.73,13.43156719,from -18.26 to 21.4,-0.971209824,from -8.6 to 5.3,0
1531946419578180357,30.39818382,from - 50 to 47.3,1.55046463,from -19.3 to 22.93,44.8105278,from -177.3 to 179.2,17.5786438,from 12.48 to 24.29,7.328927517,from -17.05 to 19.73,13.54149914,from -18.26 to 21.4,-1.118685246,from -8.6 to 5.3,0
1531946419630630940,24.00944328,from - 50 to 47.3,3.791898727,from -19.3 to 22.93,54.90385818,from -177.3 to 179.2,17.5786438,from 12.48 to 24.29,7.128440857,from -17.05 to 19.73,13.61119652,from -18.26 to 21.4,-1.221529841,from -8.6 to 5.3,0
1531946419649736869,24.00944328,from - 50 to 47.3,3.791898727,from -19.3 to 22.93,54.90385818,from -177.3 to 179.2,17.51571083,from 12.48 to 24.29,6.820092678,from -17.05 to 19.73,13.71318817,from -18.26 to 21.4,-1.381321311,from -8.6 to 5.3,0
1531946419729137647,24.00944328,from - 50 to 47.3,3.791898727,from -19.3 to 22.93,54.90385818,from -177.3 to 179.2,17.51571083,from 12.48 to 24.29,6.511828423,from -17.05 to 19.73,13.79648018,from -18.26 to 21.4,-1.509888411,from -8.6 to 5.3,0
1531946419760743043,24.00944328,from - 50 to 47.3,3.791898727,from -19.3 to 22.93,54.90385818,from -177.3 to 179.2,17.51571083,from 12.48 to 24.29,6.409292221,from -17.05 to 19.73,13.81623459,from -18.26 to 21.4,-1.549844146,from -8.6 to 5.3,0
1531946419818311382,24.00944328,from - 50 to 47.3,3.791898727,from -19.3 to 22.93,54.90385818,from -177.3 to 179.2,17.36801338,from 12.48 to 24.29,6.132829666,from -17.05 to 19.73,13.86657238,from -18.26 to 21.4,-1.645635486,from -8.6 to 5.3,0
1531946419890180298,24.00944328,from - 50 to 47.3,3.791898727,from -19.3 to 22.93,54.90385818,from -177.3 to 179.2,17.19571495,from 12.48 to 24.29,5.889214039,from -17.05 to 19.73,13.90212727,from -18.26 to 21.4,-1.730250597,from -8.6 to 5.3,0
1531946419906452563,24.00944328,from - 50 to 47.3,3.791898727,from -19.3 to 22.93,54.90385818,from -177.3 to 179.2,17.19571495,from 12.48 to 24.29,5.635484219,from -17.05 to 19.73,13.93587112,from -18.26 to 21.4,-1.806560516,from -8.6 to 5.3,0
1531946419961179682,24.00944328,from - 50 to 47.3,3.791898727,from -19.3 to 22.93,54.90385818,from -177.3 to 179.2,16.93459129,from 12.48 to 24.29,5.462352276,from -17.05 to 19.73,13.95016289,from -18.26 to 21.4,-1.841724753,from -8.6 to 5.3,0
1531946420006942419,24.00944328,from - 50 to 47.3,3.791898727,from -19.3 to 22.93,54.90385818,from -177.3 to 179.2,16.93459129,from 12.48 to 24.29,5.305987835,from -17.05 to 19.73,13.95867062,from -18.26 to 21.4,-1.867956996,from -8.6 to 5.3,0
1531946420085844432,24.00944328,from - 50 to 47.3,3.791898727,from -19.3 to 22.93,54.90385818,from -177.3 to 179.2,16.71426582,from 12.48 to 24.29,5.031768799,from -17.05 to 19.73,13.95977783,from -18.26 to 21.4,-1.92329061,from -8.6 to 5.3,0
1531946420123723365,19.44418335,from - 50 to 47.3,6.240637779,from -19.3 to 22.93,62.59189606,from -177.3 to 179.2,16.71426582,from 12.48 to 24.29,4.889554024,from -17.05 to 19.73,13.9621315,from -18.26 to 21.4,-1.955826521,from -8.6 to 5.3,0
1531946420166807583,19.44418335,from - 50 to 47.3,6.240637779,from -19.3 to 22.93,62.59189606,from -177.3 to 179.2,16.71426582,from 12.48 to 24.29,4.81165266,from -17.05 to 19.73,13.96074772,from -18.26 to 21.4,-1.97684145,from -8.6 to 5.3,0
1531946420238430591,19.44418335,from - 50 to 47.3,6.240637779,from -19.3 to 22.93,62.59189606,from -177.3 to 179.2,16.51009941,from 12.48 to 24.29,4.589531899,from -17.05 to 19.73,13.96099758,from -18.26 to 21.4,-2.028016806,from -8.6 to 5.3,0
1531946420278850057,19.44418335,from - 50 to 47.3,6.240637779,from -19.3 to 22.93,62.59189606,from -177.3 to 179.2,16.28605652,from 12.48 to 24.29,4.468776703,from -17.05 to 19.73,13.94862461,from -18.26 to 21.4,-2.042176485,from -8.6 to 5.3,0
1531946420309369402,19.44418335,from - 50 to 47.3,6.240637779,from -19.3 to 22.93,62.59189606,from -177.3 to 179.2,16.03386688,from 12.48 to 24.29,4.196728706,from -17.05 to 19.73,13.90194035,from -18.26 to 21.4,-2.070496798,from -8.6 to 5.3,0
1531946420354739985,19.44418335,from - 50 to 47.3,6.240637779,from -19.3 to 22.93,62.59189606,from -177.3 to 179.2,16.03386688,from 12.48 to 24.29,4.012510777,from -17.05 to 19.73,13.85071945,from -18.26 to 21.4,-1.996776223,from -8.6 to 5.3,0
1531946420400313481,19.44418335,from - 50 to 47.3,6.240637779,from -19.3 to 22.93,62.59189606,from -177.3 to 179.2,15.55966663,from 12.48 to 24.29,3.933886051,from -17.05 to 19.73,13.80375004,from -18.26 to 21.4,-1.878949881,from -8.6 to 5.3,0
1531946420508102160,19.44418335,from - 50 to 47.3,6.240637779,from -19.3 to 22.93,62.59189606,from -177.3 to 179.2,15.55966663,from 12.48 to 24.29,3.914019585,from -17.05 to 19.73,13.78630352,from -18.26 to 21.4,-1.839060545,from -8.6 to 5.3,0
1531946420567474619,19.44418335,from - 50 to 47.3,6.240637779,from -19.3 to 22.93,62.59189606,from -177.3 to 179.2,15.15942574,from 12.48 to 24.29,3.851684332,from -17.05 to 19.73,13.72428608,from -18.26 to 21.4,-1.724975944,from -8.6 to 5.3,0
1531946420612214535,8.580525398,from - 50 to 47.3,6.013532162,from -19.3 to 22.93,68.2559433,from -177.3 to 179.2,15.15942574,from 12.48 to 24.29,3.762354136,from -17.05 to 19.73,13.65272713,from -18.26 to 21.4,-1.588168263,from -8.6 to 5.3,0
1531946420660736950,8.580525398,from - 50 to 47.3,6.013532162,from -19.3 to 22.93,68.2559433,from -177.3 to 179.2,14.84943676,from 12.48 to 24.29,3.716934443,from -17.05 to 19.73,13.60334969,from -18.26 to 21.4,-1.486865044,from -8.6 to 5.3,0
1531946420715576442,8.580525398,from - 50 to 47.3,6.013532162,from -19.3 to 22.93,68.2559433,from -177.3 to 179.2,14.51924992,from 12.48 to 24.29,3.681627274,from -17.05 to 19.73,13.54531479,from -18.26 to 21.4,-1.386330962,from -8.6 to 5.3,0
1531946420796958288,8.580525398,from - 50 to 47.3,6.013532162,from -19.3 to 22.93,68.2559433,from -177.3 to 179.2,14.51924992,from 12.48 to 24.29,3.663859844,from -17.05 to 19.73,13.50907612,from -18.26 to 21.4,-1.327776551,from -8.6 to 5.3,0
1531946420850914352,8.580525398,from - 50 to 47.3,6.013532162,from -19.3 to 22.93,68.2559433,from -177.3 to 179.2,14.28020859,from 12.48 to 24.29,3.64521265,from -17.05 to 19.73,13.47621727,from -18.26 to 21.4,-1.25153172,from -8.6 to 5.3,0
1531946420900854784,8.580525398,from - 50 to 47.3,6.013532162,from -19.3 to 22.93,68.2559433,from -177.3 to 179.2,13.98293495,from 12.48 to 24.29,3.591882229,from -17.05 to 19.73,13.38679409,from -18.26 to 21.4,-0.970285892,from -8.6 to 5.3,0
1531946420968951414,8.580525398,from - 50 to 47.3,6.013532162,from -19.3 to 22.93,68.2559433,from -177.3 to 179.2,13.98293495,from 12.48 to 24.29,3.576176167,from -17.05 to 19.73,13.35809994,from -18.26 to 21.4,-0.861373067,from -8.6 to 5.3,0
1531946421001985840,0.869271874,from - 50 to 47.3,4.424753666,from -19.3 to 22.93,71.01741028,from -177.3 to 179.2,13.60558796,from 12.48 to 24.29,3.564414501,from -17.05 to 19.73,13.33292007,from -18.26 to 21.4,-0.723363042,from -8.6 to 5.3,0
1531946421073219799,0.869271874,from - 50 to 47.3,4.424753666,from -19.3 to 22.93,71.01741028,from -177.3 to 179.2,13.60558796,from 12.48 to 24.29,3.540872097,from -17.05 to 19.73,13.2963295,from -18.26 to 21.4,-0.40870747,from -8.6 to 5.3,0
1531946421132443548,0.869271874,from - 50 to 47.3,4.424753666,from -19.3 to 22.93,71.01741028,from -177.3 to 179.2,13.19697857,from 12.48 to 24.29,3.529705524,from -17.05 to 19.73,13.27502632,from -18.26 to 21.4,-0.263933599,from -8.6 to 5.3,0
1531946421170325170,0.869271874,from - 50 to 47.3,4.424753666,from -19.3 to 22.93,71.01741028,from -177.3 to 179.2,13.19697857,from 12.48 to 24.29,3.531414986,from -17.05 to 19.73,13.24729347,from -18.26 to 21.4,-0.074705802,from -8.6 to 5.3,0
1531946421213238459,0.869271874,from - 50 to 47.3,4.424753666,from -19.3 to 22.93,71.01741028,from -177.3 to 179.2,13.01127911,from 12.48 to 24.29,3.550519466,from -17.05 to 19.73,13.22791195,from -18.26 to 21.4,0.053304315,from -8.6 to 5.3,0
1531946421274185649,0.869271874,from - 50 to 47.3,4.424753666,from -19.3 to 22.93,71.01741028,from -177.3 to 179.2,13.01127911,from 12.48 to 24.29,3.570525408,from -17.05 to 19.73,13.21548462,from -18.26 to 21.4,0.174275383,from -8.6 to 5.3,0
1531946421310510628,-3.154695272,from - 50 to 47.3,2.272111893,from -19.3 to 22.93,70.87599945,from -177.3 to 179.2,13.01127911,from 12.48 to 24.29,3.575509071,from -17.05 to 19.73,13.2036829,from -18.26 to 21.4,0.302044362,from -8.6 to 5.3,0
1531946421370152783,-3.154695272,from - 50 to 47.3,2.272111893,from -19.3 to 22.93,70.87599945,from -177.3 to 179.2,12.75216198,from 12.48 to 24.29,3.613640308,from -17.05 to 19.73,13.17957401,from -18.26 to 21.4,0.56355077,from -8.6 to 5.3,0
1531946421410849597,-3.154695272,from - 50 to 47.3,2.272111893,from -19.3 to 22.93,70.87599945,from -177.3 to 179.2,12.65819073,from 12.48 to 24.29,3.619726896,from -17.05 to 19.73,13.17834377,from -18.26 to 21.4,0.631958663,from -8.6 to 5.3,0
1531946421453286436,-3.154695272,from - 50 to 47.3,2.272111893,from -19.3 to 22.93,70.87599945,from -177.3 to 179.2,12.61498642,from 12.48 to 24.29,3.664420128,from -17.05 to 19.73,13.17507458,from -18.26 to 21.4,0.963574946,from -8.6 to 5.3,0
1531946421510279334,-3.154695272,from - 50 to 47.3,2.272111893,from -19.3 to 22.93,70.87599945,from -177.3 to 179.2,12.61498642,from 12.48 to 24.29,3.696958303,from -17.05 to 19.73,13.20040894,from -18.26 to 21.4,1.085797787,from -8.6 to 5.3,0
1531946421555703383,-3.154695272,from - 50 to 47.3,2.272111893,from -19.3 to 22.93,70.87599945,from -177.3 to 179.2,12.49097252,from 12.48 to 24.29,3.720810652,from -17.05 to 19.73,13.24124622,from -18.26 to 21.4,1.201724887,from -8.6 to 5.3,0
1531946421617344374,-3.154695272,from - 50 to 47.3,2.272111893,from -19.3 to 22.93,70.87599945,from -177.3 to 179.2,12.49097252,from 12.48 to 24.29,3.732388496,from -17.05 to 19.73,13.24746227,from -18.26 to 21.4,1.212334394,from -8.6 to 5.3,0
1531946421690047414,-5.329892159,from - 50 to 47.3,0.320466071,from -19.3 to 22.93,68.4482193,from -177.3 to 179.2,12.55273724,from 12.48 to 24.29,3.751353741,from -17.05 to 19.73,13.28542042,from -18.26 to 21.4,1.284892559,from -8.6 to 5.3,0
1531946421808778501,-5.329892159,from - 50 to 47.3,0.320466071,from -19.3 to 22.93,68.4482193,from -177.3 to 179.2,12.60284901,from 12.48 to 24.29,3.786121607,from -17.05 to 19.73,13.32395077,from -18.26 to 21.4,1.335335851,from -8.6 to 5.3,0
1531946421904768206,-5.329892159,from - 50 to 47.3,0.320466071,from -19.3 to 22.93,68.4482193,from -177.3 to 179.2,12.60284901,from 12.48 to 24.29,3.811471224,from -17.05 to 19.73,13.35711002,from -18.26 to 21.4,1.383323431,from -8.6 to 5.3,0
1531946421914222036,-5.329892159,from - 50 to 47.3,0.320466071,from -19.3 to 22.93,68.4482193,from -177.3 to 179.2,12.689538,from 12.48 to 24.29,3.867629051,from -17.05 to 19.73,13.3941803,from -18.26 to 21.4,1.443088531,from -8.6 to 5.3,0
1531946421964577672,-5.329892159,from - 50 to 47.3,0.320466071,from -19.3 to 22.93,68.4482193,from -177.3 to 179.2,12.689538,from 12.48 to 24.29,3.892889738,from -17.05 to 19.73,13.40557957,from -18.26 to 21.4,1.439170122,from -8.6 to 5.3,0
1531946422026562763,-5.329892159,from - 50 to 47.3,0.320466071,from -19.3 to 22.93,68.4482193,from -177.3 to 179.2,12.689538,from 12.48 to 24.29,3.935615301,from -17.05 to 19.73,13.43408871,from -18.26 to 21.4,1.495504856,from -8.6 to 5.3,0
1531946422057190735,1.397343755,from - 50 to 47.3,-1.694697618,from -19.3 to 22.93,63.92186356,from -177.3 to 179.2,12.80173683,from 12.48 to 24.29,4.015107632,from -17.05 to 19.73,13.47382355,from -18.26 to 21.4,1.536603928,from -8.6 to 5.3,0
1531946422128609358,1.397343755,from - 50 to 47.3,-1.694697618,from -19.3 to 22.93,63.92186356,from -177.3 to 179.2,12.73648357,from 12.48 to 24.29,4.102179527,from -17.05 to 19.73,13.50936699,from -18.26 to 21.4,1.588986158,from -8.6 to 5.3,0
1531946422160518482,1.397343755,from - 50 to 47.3,-1.694697618,from -19.3 to 22.93,63.92186356,from -177.3 to 179.2,12.73648357,from 12.48 to 24.29,4.134031296,from -17.05 to 19.73,13.52816582,from -18.26 to 21.4,1.616697907,from -8.6 to 5.3,0
1531946422178484030,1.397343755,from - 50 to 47.3,-1.694697618,from -19.3 to 22.93,63.92186356,from -177.3 to 179.2,12.73648357,from 12.48 to 24.29,4.222718239,from -17.05 to 19.73,13.5759325,from -18.26 to 21.4,1.671495438,from -8.6 to 5.3,0
1531946422215298810,1.397343755,from - 50 to 47.3,-1.694697618,from -19.3 to 22.93,63.92186356,from -177.3 to 179.2,12.73591614,from 12.48 to 24.29,4.25715065,from -17.05 to 19.73,13.59607792,from -18.26 to 21.4,1.690522909,from -8.6 to 5.3,0
1531946422308659908,1.397343755,from - 50 to 47.3,-1.694697618,from -19.3 to 22.93,63.92186356,from -177.3 to 179.2,12.73591614,from 12.48 to 24.29,4.447199345,from -17.05 to 19.73,13.7169075,from -18.26 to 21.4,1.606156349,from -8.6 to 5.3,0
1531946422330470352,1.397343755,from - 50 to 47.3,-1.694697618,from -19.3 to 22.93,63.92186356,from -177.3 to 179.2,13.08671761,from 12.48 to 24.29,4.600926399,from -17.05 to 19.73,13.82248211,from -18.26 to 21.4,1.488639236,from -8.6 to 5.3,0
1531946422374272928,1.397343755,from - 50 to 47.3,-1.694697618,from -19.3 to 22.93,63.92186356,from -177.3 to 179.2,13.21801567,from 12.48 to 24.29,4.662221909,from -17.05 to 19.73,13.87121677,from -18.26 to 21.4,1.450850129,from -8.6 to 5.3,0
1531946422421467384,1.397343755,from - 50 to 47.3,-1.694697618,from -19.3 to 22.93,63.92186356,from -177.3 to 179.2,13.21801567,from 12.48 to 24.29,4.748274326,from -17.05 to 19.73,13.96757317,from -18.26 to 21.4,1.372098565,from -8.6 to 5.3,0
1531946422493272046,-1.020467639,from - 50 to 47.3,-3.53283,from -19.3 to 22.93,62.49171448,from -177.3 to 179.2,13.27487087,from 12.48 to 24.29,4.788280487,from -17.05 to 19.73,14.02792931,from -18.26 to 21.4,1.363340139,from -8.6 to 5.3,0
1531946422517827825,-1.020467639,from - 50 to 47.3,-3.53283,from -19.3 to 22.93,62.49171448,from -177.3 to 179.2,13.42084694,from 12.48 to 24.29,4.840909481,from -17.05 to 19.73,14.18945408,from -18.26 to 21.4,1.271271467,from -8.6 to 5.3,0
1531946422549975366,-1.020467639,from - 50 to 47.3,-3.53283,from -19.3 to 22.93,62.49171448,from -177.3 to 179.2,13.42084694,from 12.48 to 24.29,4.8269701,from -17.05 to 19.73,14.26584148,from -18.26 to 21.4,1.334427595,from -8.6 to 5.3,0
1531946422608441251,-1.020467639,from - 50 to 47.3,-3.53283,from -19.3 to 22.93,62.49171448,from -177.3 to 179.2,13.20032597,from 12.48 to 24.29,4.803427696,from -17.05 to 19.73,14.31235981,from -18.26 to 21.4,1.428747654,from -8.6 to 5.3,0
1531946422623894631,-1.020467639,from - 50 to 47.3,-3.53283,from -19.3 to 22.93,62.49171448,from -177.3 to 179.2,13.20032597,from 12.48 to 24.29,4.750965595,from -17.05 to 19.73,14.3825016,from -18.26 to 21.4,1.581514716,from -8.6 to 5.3,0
1531946422691041851,-1.020467639,from - 50 to 47.3,-3.53283,from -19.3 to 22.93,62.49171448,from -177.3 to 179.2,12.99484253,from 12.48 to 24.29,4.696994781,from -17.05 to 19.73,14.43728733,from -18.26 to 21.4,1.662671208,from -8.6 to 5.3,0
1531946422731070476,0.552712023,from - 50 to 47.3,-4.258896828,from -19.3 to 22.93,65.74021912,from -177.3 to 179.2,12.99484253,from 12.48 to 24.29,4.553725719,from -17.05 to 19.73,14.56412697,from -18.26 to 21.4,1.802897334,from -8.6 to 5.3,0
1531946422815589490,0.552712023,from - 50 to 47.3,-4.258896828,from -19.3 to 22.93,65.74021912,from -177.3 to 179.2,12.99458694,from 12.48 to 24.29,4.501671314,from -17.05 to 19.73,14.60177422,from -18.26 to 21.4,1.827760339,from -8.6 to 5.3,0
1531946422893472812,0.552712023,from - 50 to 47.3,-4.258896828,from -19.3 to 22.93,65.74021912,from -177.3 to 179.2,12.99458694,from 12.48 to 24.29,4.278033733,from -17.05 to 19.73,14.76830482,from -18.26 to 21.4,1.836727977,from -8.6 to 5.3,0
1531946422912857626,0.552712023,from - 50 to 47.3,-4.258896828,from -19.3 to 22.93,65.74021912,from -177.3 to 179.2,13.18352795,from 12.48 to 24.29,4.213521481,from -17.05 to 19.73,14.80720329,from -18.26 to 21.4,1.843011856,from -8.6 to 5.3,0
1531946422972530195,0.552712023,from - 50 to 47.3,-4.258896828,from -19.3 to 22.93,65.74021912,from -177.3 to 179.2,13.18352795,from 12.48 to 24.29,4.076087475,from -17.05 to 19.73,14.90157604,from -18.26 to 21.4,1.815024614,from -8.6 to 5.3,0
1531946422998908855,0.552712023,from - 50 to 47.3,-4.258896828,from -19.3 to 22.93,65.74021912,from -177.3 to 179.2,13.43717098,from 12.48 to 24.29,3.738780022,from -17.05 to 19.73,15.10127258,from -18.26 to 21.4,1.714677334,from -8.6 to 5.3,0
1531946423109584248,15.07157612,from - 50 to 47.3,-3.81142664,from -19.3 to 22.93,71.19416809,from -177.3 to 179.2,13.43717098,from 12.48 to 24.29,3.562901735,from -17.05 to 19.73,15.2056284,from -18.26 to 21.4,1.663847089,from -8.6 to 5.3,0
1531946423130795176,15.07157612,from - 50 to 47.3,-3.81142664,from -19.3 to 22.93,71.19416809,from -177.3 to 179.2,13.84844589,from 12.48 to 24.29,3.470522642,from -17.05 to 19.73,15.2603941,from -18.26 to 21.4,1.629575491,from -8.6 to 5.3,0
1531946423170025662,15.07157612,from - 50 to 47.3,-3.81142664,from -19.3 to 22.93,71.19416809,from -177.3 to 179.2,13.84844589,from 12.48 to 24.29,3.017256975,from -17.05 to 19.73,15.48594093,from -18.26 to 21.4,1.506568313,from -8.6 to 5.3,0
1531946423230862304,15.07157612,from - 50 to 47.3,-3.81142664,from -19.3 to 22.93,71.19416809,from -177.3 to 179.2,14.21717167,from 12.48 to 24.29,2.692844629,from -17.05 to 19.73,15.6303463,from -18.26 to 21.4,1.335141301,from -8.6 to 5.3,0
1531946423252322022,15.07157612,from - 50 to 47.3,-3.81142664,from -19.3 to 22.93,71.19416809,from -177.3 to 179.2,14.60345364,from 12.48 to 24.29,2.392711639,from -17.05 to 19.73,15.73811245,from -18.26 to 21.4,1.239074349,from -8.6 to 5.3,0
1531946423327740302,15.07157612,from - 50 to 47.3,-3.81142664,from -19.3 to 22.93,71.19416809,from -177.3 to 179.2,14.60345364,from 12.48 to 24.29,2.074478388,from -17.05 to 19.73,15.85335827,from -18.26 to 21.4,1.123947978,from -8.6 to 5.3,0
1531946423378712551,15.07157612,from - 50 to 47.3,-3.81142664,from -19.3 to 22.93,71.19416809,from -177.3 to 179.2,14.60345364,from 12.48 to 24.29,1.967101455,from -17.05 to 19.73,15.88571358,from -18.26 to 21.4,1.087591529,from -8.6 to 5.3,0
1531946423413816599,15.07157612,from - 50 to 47.3,-3.81142664,from -19.3 to 22.93,71.19416809,from -177.3 to 179.2,15.0092659,from 12.48 to 24.29,1.716650605,from -17.05 to 19.73,15.96541405,from -18.26 to 21.4,0.962463915,from -8.6 to 5.3,0
1531946423501472526,26.43056297,from - 50 to 47.3,-0.833163738,from -19.3 to 22.93,73.61412811,from -177.3 to 179.2,15.0092659,from 12.48 to 24.29,1.473090529,from -17.05 to 19.73,16.03018761,from -18.26 to 21.4,0.87980938,from -8.6 to 5.3,0
1531946423564644580,26.43056297,from - 50 to 47.3,-0.833163738,from -19.3 to 22.93,73.61412811,from -177.3 to 179.2,15.36786842,from 12.48 to 24.29,0.970335186,from -17.05 to 19.73,16.15500832,from -18.26 to 21.4,0.736928582,from -8.6 to 5.3,0
1531946423619691723,26.43056297,from - 50 to 47.3,-0.833163738,from -19.3 to 22.93,73.61412811,from -177.3 to 179.2,15.36786842,from 12.48 to 24.29,0.796640337,from -17.05 to 19.73,16.18950462,from -18.26 to 21.4,0.658570945,from -8.6 to 5.3,0
1531946423652068012,26.43056297,from - 50 to 47.3,-0.833163738,from -19.3 to 22.93,73.61412811,from -177.3 to 179.2,15.89348984,from 12.48 to 24.29,0.502908289,from -17.05 to 19.73,16.24684143,from -18.26 to 21.4,0.570687532,from -8.6 to 5.3,0
1531946423697600368,26.43056297,from - 50 to 47.3,-0.833163738,from -19.3 to 22.93,73.61412811,from -177.3 to 179.2,15.89348984,from 12.48 to 24.29,-0.086352065,from -17.05 to 19.73,16.33413315,from -18.26 to 21.4,0.468307436,from -8.6 to 5.3,0
1531946423733138895,26.43056297,from - 50 to 47.3,-0.833163738,from -19.3 to 22.93,73.61412811,from -177.3 to 179.2,16.01363564,from 12.48 to 24.29,-0.503043294,from -17.05 to 19.73,16.38152313,from -18.26 to 21.4,0.442881912,from -8.6 to 5.3,0
1531946423773761369,26.43056297,from - 50 to 47.3,-0.833163738,from -19.3 to 22.93,73.61412811,from -177.3 to 179.2,16.01363564,from 12.48 to 24.29,-0.821238935,from -17.05 to 19.73,16.40733147,from -18.26 to 21.4,0.397273153,from -8.6 to 5.3,0
1531946423840200637,26.43056297,from - 50 to 47.3,-0.833163738,from -19.3 to 22.93,73.61412811,from -177.3 to 179.2,16.18106079,from 12.48 to 24.29,-0.978544235,from -17.05 to 19.73,16.42162132,from -18.26 to 21.4,0.383892685,from -8.6 to 5.3,0
1531946423897642068,32.77638626,from - 50 to 47.3,1.646226406,from -19.3 to 22.93,81.92570496,from -177.3 to 179.2,16.18106079,from 12.48 to 24.29,-1.525896192,from -17.05 to 19.73,16.44952393,from -18.26 to 21.4,0.246288493,from -8.6 to 5.3,0
1531946423914778935,32.77638626,from - 50 to 47.3,1.646226406,from -19.3 to 22.93,81.92570496,from -177.3 to 179.2,16.40498924,from 12.48 to 24.29,-2.084259987,from -17.05 to 19.73,16.45921135,from -18.26 to 21.4,0.135068223,from -8.6 to 5.3,0
1531946423977245310,32.77638626,from - 50 to 47.3,1.646226406,from -19.3 to 22.93,81.92570496,from -177.3 to 179.2,16.57799912,from 12.48 to 24.29,-2.818067312,from -17.05 to 19.73,16.43907166,from -18.26 to 21.4,0.035109572,from -8.6 to 5.3,0
1531946424068339412,32.77638626,from - 50 to 47.3,1.646226406,from -19.3 to 22.93,81.92570496,from -177.3 to 179.2,16.57799912,from 12.48 to 24.29,-3.557364464,from -17.05 to 19.73,16.38171959,from -18.26 to 21.4,-0.038066342,from -8.6 to 5.3,0
1531946424096796850,32.77638626,from - 50 to 47.3,1.646226406,from -19.3 to 22.93,81.92570496,from -177.3 to 179.2,16.6764431,from 12.48 to 24.29,-3.715004921,from -17.05 to 19.73,16.37003708,from -18.26 to 21.4,-0.025775986,from -8.6 to 5.3,0
1531946424134600131,32.77638626,from - 50 to 47.3,1.646226406,from -19.3 to 22.93,81.92570496,from -177.3 to 179.2,16.6764431,from 12.48 to 24.29,-4.241263866,from -17.05 to 19.73,16.29823494,from -18.26 to 21.4,-0.032759313,from -8.6 to 5.3,0
1531946424176419269,32.77638626,from - 50 to 47.3,1.646226406,from -19.3 to 22.93,81.92570496,from -177.3 to 179.2,16.74429703,from 12.48 to 24.29,-4.612510681,from -17.05 to 19.73,16.23527527,from -18.26 to 21.4,-0.039465126,from -8.6 to 5.3,0
1531946424238968723,32.77638626,from - 50 to 47.3,1.646226406,from -19.3 to 22.93,81.92570496,from -177.3 to 179.2,16.80986404,from 12.48 to 24.29,-5.536177158,from -17.05 to 19.73,16.03872299,from -18.26 to 21.4,-0.047490325,from -8.6 to 5.3,0
1531946424307662789,32.77638626,from - 50 to 47.3,1.646226406,from -19.3 to 22.93,81.92570496,from -177.3 to 179.2,16.80986404,from 12.48 to 24.29,-6.077194214,from -17.05 to 19.73,15.89208317,from -18.26 to 21.4,-0.038295873,from -8.6 to 5.3,0
1531946424356946173,32.77638626,from - 50 to 47.3,1.646226406,from -19.3 to 22.93,81.92570496,from -177.3 to 179.2,16.92964363,from 12.48 to 24.29,-6.430751801,from -17.05 to 19.73,15.79004097,from -18.26 to 21.4,-0.013534369,from -8.6 to 5.3,0
1531946424401391005,32.77638626,from - 50 to 47.3,1.646226406,from -19.3 to 22.93,81.92570496,from -177.3 to 179.2,16.92964363,from 12.48 to 24.29,-6.784645081,from -17.05 to 19.73,15.66871262,from -18.26 to 21.4,-0.019949997,from -8.6 to 5.3,0
1531946424443545534,42.65639114,from - 50 to 47.3,3.180495501,from -19.3 to 22.93,97.57429504,from -177.3 to 179.2,17.02264977,from 12.48 to 24.29,-7.300381184,from -17.05 to 19.73,15.47815609,from -18.26 to 21.4,-0.011097942,from -8.6 to 5.3,0
1531946424473637989,42.65639114,from - 50 to 47.3,3.180495501,from -19.3 to 22.93,97.57429504,from -177.3 to 179.2,17.02264977,from 12.48 to 24.29,-7.797374725,from -17.05 to 19.73,15.27246761,from -18.26 to 21.4,0.025814664,from -8.6 to 5.3,0
1531946424527515552,42.65639114,from - 50 to 47.3,3.180495501,from -19.3 to 22.93,97.57429504,from -177.3 to 179.2,17.02264977,from 12.48 to 24.29,-7.966520309,from -17.05 to 19.73,15.20134544,from -18.26 to 21.4,0.056695495,from -8.6 to 5.3,0
1531946424594689089,42.65639114,from - 50 to 47.3,3.180495501,from -19.3 to 22.93,97.57429504,from -177.3 to 179.2,17.09263802,from 12.48 to 24.29,-8.445579529,from -17.05 to 19.73,14.98097897,from -18.26 to 21.4,0.143802881,from -8.6 to 5.3,0
1531946424637625429,42.65639114,from - 50 to 47.3,3.180495501,from -19.3 to 22.93,97.57429504,from -177.3 to 179.2,17.09263802,from 12.48 to 24.29,-8.745141029,from -17.05 to 19.73,14.825284,from -18.26 to 21.4,0.183120891,from -8.6 to 5.3,0
1531946424678717310,42.65639114,from - 50 to 47.3,3.180495501,from -19.3 to 22.93,97.57429504,from -177.3 to 179.2,17.07490921,from 12.48 to 24.29,-9.341446877,from -17.05 to 19.73,14.51105785,from -18.26 to 21.4,0.31912145,from -8.6 to 5.3,0
1531946424717156765,42.65639114,from - 50 to 47.3,3.180495501,from -19.3 to 22.93,97.57429504,from -177.3 to 179.2,17.05305099,from 12.48 to 24.29,-9.488901138,from -17.05 to 19.73,14.4208746,from -18.26 to 21.4,0.3459948,from -8.6 to 5.3,0
1531946424759006702,46.78168488,from - 50 to 47.3,4.07451725,from -19.3 to 22.93,107.0899506,from -177.3 to 179.2,17.05305099,from 12.48 to 24.29,-10.04831886,from -17.05 to 19.73,14.08316135,from -18.26 to 21.4,0.481539726,from -8.6 to 5.3,0
1531946424792339894,46.78168488,from - 50 to 47.3,4.07451725,from -19.3 to 22.93,107.0899506,from -177.3 to 179.2,16.83536339,from 12.48 to 24.29,-10.29357815,from -17.05 to 19.73,13.93051338,from -18.26 to 21.4,0.580444515,from -8.6 to 5.3,0
1531946424890578153,46.78168488,from - 50 to 47.3,4.07451725,from -19.3 to 22.93,107.0899506,from -177.3 to 179.2,16.83536339,from 12.48 to 24.29,-10.89955139,from -17.05 to 19.73,13.52201653,from -18.26 to 21.4,0.64789784,from -8.6 to 5.3,0
1531946424916655230,46.78168488,from - 50 to 47.3,4.07451725,from -19.3 to 22.93,107.0899506,from -177.3 to 179.2,16.91064453,from 12.48 to 24.29,-11.64237118,from -17.05 to 19.73,12.98103905,from -18.26 to 21.4,0.576498747,from -8.6 to 5.3,0
1531946424955907743,46.78168488,from - 50 to 47.3,4.07451725,from -19.3 to 22.93,107.0899506,from -177.3 to 179.2,16.91064453,from 12.48 to 24.29,-11.81684113,from -17.05 to 19.73,12.84508896,from -18.26 to 21.4,0.555529356,from -8.6 to 5.3,0
1531946424980978390,46.78168488,from - 50 to 47.3,4.07451725,from -19.3 to 22.93,107.0899506,from -177.3 to 179.2,17.23777771,from 12.48 to 24.29,-12.45976734,from -17.05 to 19.73,12.29962063,from -18.26 to 21.4,0.565840662,from -8.6 to 5.3,0
1531946425089979933,46.78168488,from - 50 to 47.3,4.07451725,from -19.3 to 22.93,107.0899506,from -177.3 to 179.2,17.28737068,from 12.48 to 24.29,-12.62303829,from -17.05 to 19.73,12.14476967,from -18.26 to 21.4,0.543856204,from -8.6 to 5.3,0
1531946425116219551,46.78168488,from - 50 to 47.3,4.07451725,from -19.3 to 22.93,107.0899506,from -177.3 to 179.2,17.28737068,from 12.48 to 24.29,-13.06907749,from -17.05 to 19.73,11.71494484,from -18.26 to 21.4,0.52371031,from -8.6 to 5.3,0
1531946425183074408,47.27149963,from - 50 to 47.3,3.421468496,from -19.3 to 22.93,120.2212753,from -177.3 to 179.2,17.28737068,from 12.48 to 24.29,-13.35163498,from -17.05 to 19.73,11.41519165,from -18.26 to 21.4,0.494465142,from -8.6 to 5.3,0
