%time,Roll,Pitch,Yaw,Airspeed,VelocityX,VelocityY,VelocityZ,Anomaly
1536692144733653240,-11.96167564,0.79783088,-70.15618896,0,5.448525429,-20.63012695,-1.310495853,0
1536692144747348664,-11.96167564,0.79783088,-70.15618896,0,5.435284138,-20.56938934,-1.264987469,0
1536692144785582360,-11.96167564,0.79783088,-70.15618896,0,5.446200371,-20.52066231,-1.268988609,0
1536692144836487064,2.863091469,0.18381533,-71.01429749,0,5.503401279,-20.41533089,-1.315568924,0
1536692144898428952,2.863091469,0.18381533,-71.01429749,0,5.601675034,-20.28344917,-1.351535678,0
1536692144962567448,2.863091469,0.18381533,-71.01429749,0,5.720245361,-20.14473915,-1.341742158,0
1536692145030005880,2.863091469,0.18381533,-71.01429749,0,5.768571377,-20.10056877,-1.326838493,0
1536692145045635416,2.863091469,0.18381533,-71.01429749,0,5.952045918,-19.90706825,-1.206885815,0
1536692145093538360,2.863091469,0.18381533,-71.01429749,0,5.989401817,-19.86640358,-1.162361503,0
1536692145146715224,2.863091469,0.18381533,-71.01429749,0,6.137128353,-19.72340965,-1.055752039,0
1536692145201351288,2.863091469,0.18381533,-71.01429749,0,6.321442127,-19.53530312,-0.842754662,0
1536692145282999352,2.863091469,0.18381533,-71.01429749,0,6.460181236,-19.39464569,-0.681956887,0
1536692145356428952,27.10757828,-1.267190814,-71.1456604,0,6.586615086,-19.26256561,-0.426433146,0
1536692145409950200,27.10757828,-1.267190814,-71.1456604,0,6.691920757,-19.13214493,-0.145234615,0
1536692145462874136,27.10757828,-1.267190814,-71.1456604,0,6.734662056,-19.08855629,-0.040694777,0
1536692145485819416,27.10757828,-1.267190814,-71.1456604,0,6.84230423,-18.92826462,0.40012604,0
1536692145556445272,27.10757828,-1.267190814,-71.1456604,0,6.930690289,-18.7957325,0.720989048,0
1536692145604874328,27.10757828,-1.267190814,-71.1456604,0,6.993343353,-18.7045269,0.952945709,0
1536692145664517304,27.10757828,-1.267190814,-71.1456604,0,7.016355991,-18.66462708,1.060234666,0
1536692145686507416,27.10757828,-1.267190814,-71.1456604,0,7.247790813,-18.37872696,1.667551756,0
1536692145778687096,31.70547485,-5.641335487,-68.48918915,0,7.36962986,-18.22801399,1.967682004,0
1536692145859880248,31.70547485,-5.641335487,-68.48918915,0,7.412700653,-18.18512726,2.072329521,0
1536692145878474776,31.70547485,-5.641335487,-68.48918915,0,7.536931038,-18.03897858,2.382530212,0
1536692145948903576,31.70547485,-5.641335487,-68.48918915,0,7.620247841,-17.94560051,2.577039957,0
1536692145994817720,31.70547485,-5.641335487,-68.48918915,0,7.758725166,-17.79619026,2.874144793,0
1536692146055510744,31.70547485,-5.641335487,-68.48918915,0,7.839500427,-17.7061348,3.056111813,0
1536692146079384536,35.3671875,-10.81058311,-65.19718933,0,8.164345741,-17.4046669,3.553863764,0
1536692146161930680,35.3671875,-10.81058311,-65.19718933,0,8.471798897,-17.19012833,3.729214191,0
1536692146247794936,35.3671875,-10.81058311,-65.19718933,0,8.746808052,-16.98682404,3.938064575,0
1536692146322565976,35.3671875,-10.81058311,-65.19718933,0,8.814897537,-16.93599701,3.988150597,0
1536692146365268600,35.3671875,-10.81058311,-65.19718933,0,8.951040268,-16.83400345,4.101136208,0
1536692146397919256,35.3671875,-10.81058311,-65.19718933,0,9.155353546,-16.69194794,4.259217739,0
1536692146425071064,35.3671875,-10.81058311,-65.19718933,0,9.225129128,-16.64248085,4.30787468,0
1536692146461704888,34.36810303,-14.94083595,-61.70885849,0,9.505122185,-16.45510101,4.486461639,0
1536692146503659832,34.36810303,-14.94083595,-61.70885849,0,9.56751442,-16.40919495,4.53901577,0
1536692146595150296,34.36810303,-14.94083595,-61.70885849,0,9.774373055,-16.24170303,4.791148186,0
1536692146618314040,34.36810303,-14.94083595,-61.70885849,0,9.817623138,-16.20228195,4.863803864,0
1536692146687594456,34.36810303,-14.94083595,-61.70885849,0,9.998313904,-16.04786301,5.145080566,0
1536692146697653816,34.36810303,-14.94083595,-61.70885849,0,10.08810902,-15.96984386,5.277389526,0
1536692146782910168,30.66174698,-17.0812397,-59.16122055,0,10.2304821,-15.85803795,5.449230194,0
1536692146824620568,30.66174698,-17.0812397,-59.16122055,0,10.28443718,-15.81670856,5.505162716,0
1536692146881690200,30.66174698,-17.0812397,-59.16122055,0,10.49413872,-15.65896606,5.711311817,0
1536692146913546264,30.66174698,-17.0812397,-59.16122055,0,10.62171745,-15.57600021,5.770112038,0
1536692146964486488,30.66174698,-17.0812397,-59.16122055,0,10.82347965,-15.46248341,5.845991135,0
1536692147028286552,30.66174698,-17.0812397,-59.16122055,0,10.94677353,-15.39271545,5.891656399,0
1536692147062976504,30.66174698,-17.0812397,-59.16122055,0,11.12118912,-15.2984581,5.9671278,0
1536692147130531192,30.66174698,-17.0812397,-59.16122055,0,11.17437077,-15.27013302,5.99175024,0
1536692147188668120,30.66174698,-17.0812397,-59.16122055,0,11.52725887,-15.07403851,6.154242516,0
1536692147217528440,24.7323761,-20.20022392,-54.26299286,0,11.70046616,-14.99336243,6.200153351,0
1536692147277184344,24.7323761,-20.20022392,-54.26299286,0,11.75335693,-14.96613693,6.225172043,0
1536692147348896824,24.7323761,-20.20022392,-54.26299286,0,11.88581848,-14.90221977,6.310329437,0
1536692147396996536,24.7323761,-20.20022392,-54.26299286,0,11.98650932,-14.85875607,6.35007,0
1536692147418098264,24.7323761,-20.20022392,-54.26299286,0,12.15873241,-14.78904724,6.375170708,0
1536692147465858424,24.7323761,-20.20022392,-54.26299286,0,12.26686668,-14.75119305,6.387109756,0
1536692147499286200,24.7323761,-20.20022392,-54.26299286,0,12.39794159,-14.71343231,6.420442104,0
1536692147566500408,20.03539276,-21.68392372,-51.38534546,0,12.48667717,-14.6651926,6.546803474,0
1536692147602055480,20.03539276,-21.68392372,-51.38534546,0,12.53950405,-14.61983681,6.657322884,0
1536692147670995896,20.03539276,-21.68392372,-51.38534546,0,12.64165401,-14.54699898,6.85465765,0
1536692147726303576,20.03539276,-21.68392372,-51.38534546,0,12.67555714,-14.53172874,6.888071537,0
1536692147764271608,20.03539276,-21.68392372,-51.38534546,0,12.81723213,-14.46500301,7.009545326,0
1536692147856369496,20.03539276,-21.68392372,-51.38534546,0,12.8601408,-14.44239807,7.03223753,0
1536692147881873400,20.03539276,-21.68392372,-51.38534546,0,12.94013786,-14.40339375,7.082516193,0
1536692147926194808,20.03539276,-21.68392372,-51.38534546,0,13.05751419,-14.36234856,7.132526875,0
1536692147982814904,14.47402096,-23.40660667,-47.27495193,0,13.25320911,-14.32227802,7.157436848,0
1536692148002413528,14.47402096,-23.40660667,-47.27495193,0,13.34459591,-14.28386688,7.215300083,0
1536692148057767128,14.47402096,-23.40660667,-47.27495193,0,13.42076874,-14.25762939,7.30106926,0
1536692148144663672,14.47402096,-23.40660667,-47.27495193,0,13.43623066,-14.25225925,7.333777905,0
1536692148208294552,14.47402096,-23.40660667,-47.27495193,0,13.48994637,-14.24551773,7.463974953,0
1536692148223986360,14.47402096,-23.40660667,-47.27495193,0,13.54338074,-14.2468996,7.523802757,0
1536692148263662904,14.47402096,-23.40660667,-47.27495193,0,13.57205772,-14.24568081,7.568191051,0
1536692148307471032,14.47402096,-23.40660667,-47.27495193,0,13.59091759,-14.24880028,7.582476616,0
1536692148389593720,10.06363583,-23.73321533,-46.87130356,0,13.66057205,-14.26837254,7.584699154,0
1536692148416209304,10.06363583,-23.73321533,-46.87130356,0,13.68645191,-14.28951073,7.583398819,0
1536692148465996952,10.06363583,-23.73321533,-46.87130356,0,13.72932816,-14.30696392,7.646957397,0
1536692148503405176,10.06363583,-23.73321533,-46.87130356,0,13.73695374,-14.30619431,7.706438541,0
1536692148560917208,10.06363583,-23.73321533,-46.87130356,0,13.77766228,-14.31234169,7.785626411,0
1536692148610973944,10.06363583,-23.73321533,-46.87130356,0,13.82640457,-14.31427574,7.860618114,0
1536692148681976024,10.06363583,-23.73321533,-46.87130356,0,13.84735775,-14.33463001,7.85875845,0
1536692148729860920,5.189941406,-23.33045006,-45.5372963,0,13.88065338,-14.35872078,7.834775448,0
1536692148816085944,5.189941406,-23.33045006,-45.5372963,0,13.98651409,-14.43155861,7.640183449,0
1536692148880842360,5.189941406,-23.33045006,-45.5372963,0,14.02383709,-14.44657135,7.591238976,0
1536692148927347384,5.189941406,-23.33045006,-45.5372963,0,14.08015251,-14.48821735,7.459896088,0
1536692148966503640,5.189941406,-23.33045006,-45.5372963,0,14.16047096,-14.53117752,7.32733345,0
1536692149016722040,5.189941406,-23.33045006,-45.5372963,0,14.29835606,-14.6253109,6.971652031,0
1536692149076218552,5.189941406,-23.33045006,-45.5372963,0,14.53094196,-14.77886009,6.331119537,0
1536692149115149592,3.123795033,-20.36361694,-44.23671341,0,14.62096882,-14.84981728,6.0420084,0
1536692149159051800,3.123795033,-20.36361694,-44.23671341,0,14.73421192,-14.96299839,5.613003254,0
1536692149196333848,3.123795033,-20.36361694,-44.23671341,0,14.83419991,-15.08719063,5.164108753,0
1536692149308832440,3.123795033,-20.36361694,-44.23671341,0,14.86501122,-15.13349152,5.018137932,0
1536692149340591544,3.123795033,-20.36361694,-44.23671341,0,14.95928383,-15.27625179,4.526258469,0
1536692149414395320,3.123795033,-20.36361694,-44.23671341,0,14.99352169,-15.35272312,4.273628712,0
1536692149462773688,3.422442913,-15.27530289,-45.00396347,0,15.02119923,-15.44603634,4.018241405,0
1536692149494153976,3.422442913,-15.27530289,-45.00396347,0,15.04298592,-15.52186108,3.807278395,0
1536692149562910552,3.422442913,-15.27530289,-45.00396347,0,15.04186344,-15.63197517,3.558969975,0
1536692149593856280,3.422442913,-15.27530289,-45.00396347,0,15.03221416,-15.70932102,3.395434618,0
1536692149634088920,3.422442913,-15.27530289,-45.00396347,0,15.01534367,-15.83401012,3.043843269,0
1536692149690245656,3.422442913,-15.27530289,-45.00396347,0,14.99045181,-15.95214558,2.651015759,0
1536692149746407544,3.422442913,-15.27530289,-45.00396347,0,14.9559021,-16.08374596,2.201552868,0
1536692149785782488,3.422442913,-15.27530289,-45.00396347,0,14.91236019,-16.18954468,1.729890943,0
1536692149863920312,-3.082741737,-8.951264381,-44.82659531,0,14.87965012,-16.249403,1.432451487,0
1536692149919627096,-3.082741737,-8.951264381,-44.82659531,0,14.8040123,-16.3384819,0.976031423,0
1536692149973088696,-3.082741737,-8.951264381,-44.82659531,0,14.77820492,-16.36218071,0.892108202,0
1536692150018361048,-3.082741737,-8.951264381,-44.82659531,0,14.71063328,-16.41222,0.619111538,0
1536692150053697432,-3.082741737,-8.951264381,-44.82659531,0,14.64989185,-16.45594025,0.323041171,0
1536692150085532408,-3.082741737,-8.951264381,-44.82659531,0,14.61422348,-16.49067879,0.114932321,0
1536692150162344440,-3.082741737,-8.951264381,-44.82659531,0,14.49251843,-16.55146217,-0.404642344,0
1536692150187605112,-3.082741737,-8.951264381,-44.82659531,0,14.43733501,-16.5715065,-0.687514544,0
1536692150254593624,-3.082741737,-8.951264381,-44.82659531,0,14.41836834,-16.57346344,-0.82818234,0
1536692150306922552,-2.193240404,-2.118620157,-45.75587845,0,14.356287,-16.58276939,-1.227995276,0
1536692150353600760,-2.193240404,-2.118620157,-45.75587845,0,14.30663395,-16.57943535,-1.466343641,0
1536692150423926552,-2.193240404,-2.118620157,-45.75587845,0,14.24345398,-16.5760498,-1.682374358,0
1536692150483184984,-2.193240404,-2.118620157,-45.75587845,0,14.2024498,-16.55893135,-1.893933892,0
1536692150499402968,-2.193240404,-2.118620157,-45.75587845,0,14.15815353,-16.54553986,-2.126301289,0
1536692150544187128,-2.193240404,-2.118620157,-45.75587845,0,14.06758499,-16.51685143,-2.438264847,0
1536692150590657656,-2.193240404,-2.118620157,-45.75587845,0,13.9691925,-16.46381378,-2.760524273,0
1536692150608705496,-2.193240404,-2.118620157,-45.75587845,0,13.91825008,-16.4373703,-2.883250475,0
1536692150659703960,-2.193240404,-2.118620157,-45.75587845,0,13.89219093,-16.42009544,-2.933452368,0
1536692150716787416,1.120891929,2.975960732,-46.77119446,0,13.81467247,-16.36784935,-3.091340542,0
1536692150770153784,1.120891929,2.975960732,-46.77119446,0,13.77587318,-16.31624603,-3.190282345,0
1536692150851220024,1.120891929,2.975960732,-46.77119446,0,13.72020721,-16.25282669,-3.281883001,0
1536692150884979384,1.120891929,2.975960732,-46.77119446,0,13.65612888,-16.17290306,-3.419794798,0
1536692150904130488,1.120891929,2.975960732,-46.77119446,0,13.56315327,-16.06472206,-3.552136898,0
1536692150973069624,1.120891929,2.975960732,-46.77119446,0,13.43870544,-15.91382027,-3.870591164,0
1536692151002970936,1.120891929,2.975960732,-46.77119446,0,13.35006237,-15.7898035,-4.061302662,0
1536692151080434200,1.120891929,2.975960732,-46.77119446,0,13.28333855,-15.69578266,-4.154619694,0
1536692151125357176,3.401875734,5.866456032,-46.8926239,0,13.24271584,-15.62712955,-4.20316124,0
1536692151182023384,3.401875734,5.866456032,-46.8926239,0,13.20079994,-15.56593704,-4.250833511,0
1536692151240506584,3.401875734,5.866456032,-46.8926239,0,13.1107769,-15.43157291,-4.298576355,0
1536692151314596056,3.401875734,5.866456032,-46.8926239,0,13.03193283,-15.31055832,-4.242628098,0
1536692151354407800,3.401875734,5.866456032,-46.8926239,0,13.01739979,-15.27447033,-4.229324341,0
1536692151433556440,3.401875734,5.866456032,-46.8926239,0,12.98435688,-15.20834637,-4.183731079,0
1536692151451933976,3.401875734,5.866456032,-46.8926239,0,12.89410973,-15.07357788,-3.972810984,0
1536692151481675160,4.427249908,7.154234886,-47.16859055,0,12.87164497,-15.00230789,-3.941849709,0
1536692151523676152,4.427249908,7.154234886,-47.16859055,0,12.80382347,-14.88923073,-3.8377738,0
1536692151606835928,4.427249908,7.154234886,-47.16859055,0,12.78864479,-14.82415676,-3.779848099,0
1536692151664371832,4.427249908,7.154234886,-47.16859055,0,12.77736187,-14.79344559,-3.751109123,0
1536692151707814264,4.427249908,7.154234886,-47.16859055,0,12.73785686,-14.71457767,-3.636380196,0
1536692151743161240,4.427249908,7.154234886,-47.16859055,0,12.73112202,-14.68340778,-3.600337505,0
1536692151853578552,4.427249908,7.154234886,-47.16859055,0,12.70558548,-14.55226803,-3.42718935,0
1536692151894331320,4.427249908,7.154234886,-47.16859055,0,12.7016325,-14.48684502,-3.333622932,0
1536692151963035800,6.337916374,6.741699696,-46.52610779,0,12.69109535,-14.41980553,-3.228659868,0
1536692152015432792,6.337916374,6.741699696,-46.52610779,0,12.69118309,-14.32850456,-3.037755251,0
1536692152042717624,6.337916374,6.741699696,-46.52610779,0,12.6853857,-14.24036121,-2.834523201,0
1536692152079271864,6.337916374,6.741699696,-46.52610779,0,12.69084644,-14.20122337,-2.786726713,0
1536692152110144088,6.337916374,6.741699696,-46.52610779,0,12.680686,-14.05741119,-2.479957581,0
1536692152199345656,6.337916374,6.741699696,-46.52610779,0,12.69472885,-13.95388985,-2.301611662,0
1536692152221537048,6.337916374,6.741699696,-46.52610779,0,12.71190548,-13.86206722,-2.04113555,0
1536692152256544824,6.337916374,6.741699696,-46.52610779,0,12.7114687,-13.81568718,-1.828772426,0
1536692152294794200,6.337916374,6.741699696,-46.52610779,0,12.72343445,-13.73267174,-1.533533931,0
1536692152391494072,10.20538235,4.873935699,-45.08897781,0,12.73593426,-13.65808582,-1.369945049,0
1536692152405669752,10.20538235,4.873935699,-45.08897781,0,12.75728607,-13.55562115,-1.174681783,0
1536692152511553688,10.20538235,4.873935699,-45.08897781,0,12.77984142,-13.45197392,-1.008142114,0
1536692152557964184,10.20538235,4.873935699,-45.08897781,0,12.78366947,-13.42371178,-0.944898784,0
1536692152634927576,10.20538235,4.873935699,-45.08897781,0,12.82617474,-13.28522587,-0.764824808,0
1536692152662639640,10.20538235,4.873935699,-45.08897781,0,12.85977077,-13.17832088,-0.646114171,0
1536692152696144088,12.59490108,2.73141861,-44.7254982,0,12.88160229,-13.10301018,-0.55659616,0
1536692152759261880,12.59490108,2.73141861,-44.7254982,0,12.89624405,-13.07406616,-0.506396413,0
1536692152800961752,12.59490108,2.73141861,-44.7254982,0,12.93487549,-12.96908283,-0.36492303,0
1536692152862872312,12.59490108,2.73141861,-44.7254982,0,12.97326374,-12.88689327,-0.29504326,0
1536692152909969048,12.59490108,2.73141861,-44.7254982,0,13.08967018,-12.66553211,-0.079695717,0
1536692152990317944,12.59490108,2.73141861,-44.7254982,0,13.12378502,-12.59317875,-0.008460099,0
1536692153043658360,12.59490108,2.73141861,-44.7254982,0,13.17564011,-12.50724792,0.053203598,0
1536692153086736632,12.59490108,2.73141861,-44.7254982,0,13.27707386,-12.3418417,0.18172355,0
1536692153107311288,12.59490108,2.73141861,-44.7254982,0,13.33317471,-12.26531792,0.251152337,0
1536692153165358264,15.45066643,0.970939219,-44.44180298,0,13.45046616,-12.09552383,0.394753635,0
1536692153196101496,15.45066643,0.970939219,-44.44180298,0,13.53674984,-11.96842575,0.500635624,0
1536692153318804248,15.45066643,0.970939219,-44.44180298,0,13.67878342,-11.77646255,0.613296688,0
1536692153384614840,15.45066643,0.970939219,-44.44180298,0,13.7974968,-11.61816692,0.691609919,0
1536692153418963960,15.45066643,0.970939219,-44.44180298,0,13.96484661,-11.40494537,0.799791932,0
1536692153481956760,15.45066643,0.970939219,-44.44180298,0,14.00264168,-11.36151886,0.829507589,0
1536692153518902328,15.45066643,0.970939219,-44.44180298,0,14.14142704,-11.18727589,0.906366885,0
1536692153583126744,20.8181591,-0.637024343,-42.64986038,0,14.27733994,-11.02279282,0.991753995,0
1536692153628120728,20.8181591,-0.637024343,-42.64986038,0,14.41313171,-10.84459686,1.05637157,0
1536692153662648120,20.8181591,-0.637024343,-42.64986038,0,14.45931244,-10.78986359,1.080977678,0
1536692153752935160,20.8181591,-0.637024343,-42.64986038,0,14.56873035,-10.66004372,1.133271575,0
1536692153816306680,20.8181591,-0.637024343,-42.64986038,0,14.66711426,-10.53488922,1.183753133,0
1536692153862146232,20.8181591,-0.637024343,-42.64986038,0,14.88918686,-10.27649307,1.28460598,0
1536692153905606456,20.8181591,-0.637024343,-42.64986038,0,15.0506897,-10.066329,1.346400857,0
1536692153960890648,25.79228783,-1.725688457,-39.41589355,0,15.22947407,-9.848377228,1.417261362,0
1536692154003120792,25.79228783,-1.725688457,-39.41589355,0,15.41671658,-9.606063843,1.491449952,0
1536692154051889432,25.79228783,-1.725688457,-39.41589355,0,15.54682732,-9.443584442,1.529827952,0
1536692154108265720,25.79228783,-1.725688457,-39.41589355,0,15.74447727,-9.191620827,1.569875836,0
1536692154137897144,25.79228783,-1.725688457,-39.41589355,0,15.88630676,-9.008655548,1.598749518,0
1536692154202691160,25.79228783,-1.725688457,-39.41589355,0,16.09445572,-8.726541519,1.633405566,0
1536692154241179704,25.79228783,-1.725688457,-39.41589355,0,16.2299118,-8.537864685,1.664669037,0
1536692154322231320,25.79228783,-1.725688457,-39.41589355,0,16.36079407,-8.352771759,1.706709981,0
1536692154398069976,25.79228783,-1.725688457,-39.41589355,0,16.56805992,-8.065389633,1.764829993,0
1536692154438601304,32.89017487,-2.567909479,-33.95627975,0,16.78692818,-7.754965305,1.809374571,0
1536692154474840440,32.89017487,-2.567909479,-33.95627975,0,16.93434715,-7.539836884,1.827257514,0
1536692154542491160,32.89017487,-2.567909479,-33.95627975,0,17.01459694,-7.429802418,1.839139581,0
1536692154583958456,32.89017487,-2.567909479,-33.95627975,0,17.31751823,-6.942221165,1.830644369,0
1536692154639290136,32.89017487,-2.567909479,-33.95627975,0,17.56593132,-6.530306816,1.799043536,0
1536692154675054776,32.89017487,-2.567909479,-33.95627975,0,17.73454857,-6.245772839,1.766701818,0
1536692154728723992,32.89017487,-2.567909479,-33.95627975,0,17.8888607,-5.979860783,1.74686265,0
1536692154756565272,32.89017487,-2.567909479,-33.95627975,0,18.03358269,-5.698540211,1.710679889,0
1536692154820927672,37.56705093,-2.713894129,-27.74321747,0,18.19977951,-5.392316341,1.693431854,0
1536692154881608824,37.56705093,-2.713894129,-27.74321747,0,18.48414803,-4.832967281,1.668735147,0
1536692154912250424,37.56705093,-2.713894129,-27.74321747,0,18.56184769,-4.673918247,1.653051138,0
1536692154994035448,37.56705093,-2.713894129,-27.74321747,0,18.84502602,-4.059626579,1.617273092,0
1536692155049883064,37.56705093,-2.713894129,-27.74321747,0,18.97067642,-3.744829655,1.593593836,0
1536692155085985016,37.56705093,-2.713894129,-27.74321747,0,19.10812759,-3.393006086,1.552093267,0
1536692155095159896,37.56705093,-2.713894129,-27.74321747,0,19.2341404,-3.037045479,1.497353196,0
1536692155160085400,37.56705093,-2.713894129,-27.74321747,0,19.48850632,-2.262729883,1.3791399,0
1536692155210826264,37.56705093,-2.713894129,-27.74321747,0,19.55577278,-2.05634737,1.344039202,0
1536692155283395704,41.43680191,-1.997025609,-18.37742233,0,19.76444817,-1.256558657,1.211511374,0
1536692155307515256,41.43680191,-1.997025609,-18.37742233,0,19.8101387,-1.056690335,1.171027064,0
1536692155384994904,41.43680191,-1.997025609,-18.37742233,0,19.96156883,-0.443327665,1.105237007,0
1536692155423144760,41.43680191,-1.997025609,-18.37742233,0,20.08125305,0.154376909,1.026523948,0
1536692155460587864,41.43680191,-1.997025609,-18.37742233,0,20.17773628,0.781498015,0.929504156,0
1536692155512456408,41.43680191,-1.997025609,-18.37742233,0,20.24346542,1.2170223,0.854667068,0
1536692155597574200,41.43680191,-1.997025609,-18.37742233,0,20.29781723,1.653690815,0.784258723,0
1536692155608827768,41.43680191,-1.997025609,-18.37742233,0,20.3310585,2.09753561,0.708885789,0
1536692155660889400,41.43680191,-1.997025609,-18.37742233,0,20.39536285,3.238888264,0.472660959,0
1536692155707796568,41.43680191,-1.997025609,-18.37742233,0,20.41080666,4.516679287,0.301809758,0
1536692155757875992,46.2936058,-0.119394056,-5.9646101,0,20.39370346,4.940022469,0.244827867,0
1536692155823216344,46.2936058,-0.119394056,-5.9646101,0,20.34502792,5.764520645,0.137525424,0
1536692155863422328,46.2936058,-0.119394056,-5.9646101,0,20.33030891,5.998841763,0.10657993,0
1536692155932745144,46.2936058,-0.119394056,-5.9646101,0,20.22114563,6.822208405,0.001026103,0
1536692155959783704,46.2936058,-0.119394056,-5.9646101,0,20.15575981,7.234769344,-0.055654552,0
1536692156011049528,46.2936058,-0.119394056,-5.9646101,0,20.08374023,7.643908501,-0.104976855,0
1536692156095121592,46.2936058,-0.119394056,-5.9646101,0,19.81676102,8.671311378,-0.271738321,0
1536692156229459416,46.2936058,-0.119394056,-5.9646101,0,19.63895988,9.300374985,-0.36015439,0
1536692156255138072,46.2936058,-0.119394056,-5.9646101,0,19.57087135,9.477614403,-0.389443278,0
1536692156319415736,47.26695633,1.387239218,9.697495461,0,19.38519859,10.05472755,-0.450331628,0
1536692156358516344,47.26695633,1.387239218,9.697495461,0,19.12883186,10.64809418,-0.576343596,0
1536692156451746648,47.26695633,1.387239218,9.697495461,0,18.94845772,11.06194782,-0.671861649,0
1536692156480822616,47.26695633,1.387239218,9.697495461,0,18.75838852,11.47602844,-0.769411206,0
1536692156515821432,47.26695633,1.387239218,9.697495461,0,18.33706284,12.30863571,-1.006775379,0
1536692156623992184,47.26695633,1.387239218,9.697495461,0,18.22531128,12.52122784,-1.060249925,0
1536692156681652344,47.26695633,1.387239218,9.697495461,0,17.89475632,13.05491734,-1.20947063,0
1536692156719375512,47.26695633,1.387239218,9.697495461,0,17.67774582,13.40295219,-1.292783499,0
1536692156762050776,46.29258347,1.90413034,21.88195801,0,17.32178879,13.91619492,-1.435712457,0
1536692156823539192,46.29258347,1.90413034,21.88195801,0,16.94333076,14.42119884,-1.555392504,0
1536692156861126488,46.29258347,1.90413034,21.88195801,0,16.67755508,14.74310684,-1.639229894,0
1536692156910647640,46.29258347,1.90413034,21.88195801,0,16.29045486,15.21070099,-1.769540429,0
1536692156998852920,46.29258347,1.90413034,21.88195801,0,16.0167942,15.52691555,-1.845953226,0
1536692157024967448,46.29258347,1.90413034,21.88195801,0,15.4275341,16.11572456,-2.010257006,0
1536692157057466328,46.29258347,1.90413034,21.88195801,0,15.13738441,16.39633942,-2.086222172,0
1536692157113194488,46.29258347,1.90413034,21.88195801,0,14.67587852,16.8379097,-2.170828104,0
1536692157166763640,46.29258347,1.90413034,21.88195801,0,14.5419178,16.97064972,-2.199285984,0
1536692157229950232,44.977314,4.749278545,34.11022568,0,14.20142555,17.25171852,-2.269662857,0
1536692157258879736,44.977314,4.749278545,34.11022568,0,13.72449303,17.63442993,-2.357631207,0
1536692157323012312,44.977314,4.749278545,34.11022568,0,13.37964058,17.90417671,-2.40198493,0
1536692157362988120,44.977314,4.749278545,34.11022568,0,12.9094553,18.2658596,-2.420571089,0
1536692157449798488,44.977314,4.749278545,34.11022568,0,12.56018066,18.50406075,-2.419266462,0
1536692157481634008,44.977314,4.749278545,34.11022568,0,12.05256367,18.84524727,-2.432809591,0
1536692157534365208,44.977314,4.749278545,34.11022568,0,11.53961945,19.17333984,-2.44234395,0
1536692157577029080,46.21244049,5.601396084,43.6416626,0,11.20576,19.36727715,-2.424980164,0
1536692157601317944,46.21244049,5.601396084,43.6416626,0,10.87442017,19.54707718,-2.427096128,0
1536692157673645816,46.21244049,5.601396084,43.6416626,0,10.19039249,19.9046154,-2.42286253,0
1536692157699032376,46.21244049,5.601396084,43.6416626,0,10.01463318,20.00514793,-2.421675444,0
1536692157756499064,46.21244049,5.601396084,43.6416626,0,9.316467285,20.32421112,-2.401870012,0
1536692157813252344,46.21244049,5.601396084,43.6416626,0,8.950897217,20.49589348,-2.394116879,0
1536692157879556792,46.21244049,5.601396084,43.6416626,0,8.583325386,20.63637924,-2.387639761,0
1536692157908552728,47.57330704,5.805621624,52.11048126,0,8.078147888,20.8376255,-2.353841782,0
1536692157957558232,47.57330704,5.805621624,52.11048126,0,7.778795242,20.96993637,-2.287034273,0
1536692158010698456,47.57330704,5.805621624,52.11048126,0,7.455914021,21.07422829,-2.236627102,0
1536692158092926040,47.57330704,5.805621624,52.11048126,0,6.990143299,21.2223587,-2.185111284,0
1536692158101277272,47.57330704,5.805621624,52.11048126,0,6.663879871,21.33517838,-2.157595158,0
1536692158188305816,47.57330704,5.805621624,52.11048126,0,5.904862881,21.53537178,-2.054018021,0
1536692158218228120,47.57330704,5.805621624,52.11048126,0,5.300096035,21.66286659,-1.936813712,0
1536692158257855512,47.57330704,5.805621624,52.11048126,0,5.153356075,21.69228745,-1.916150928,0
1536692158321508760,47.57330704,5.805621624,52.11048126,0,4.574987888,21.79048347,-1.780493855,0
1536692158370252056,48.17404556,6.355100155,63.48734665,0,4.290815353,21.83341599,-1.67764473,0
1536692158417671256,48.17404556,6.355100155,63.48734665,0,3.996590614,21.8727932,-1.598428607,0
1536692158463999384,48.17404556,6.355100155,63.48734665,0,3.70353651,21.90656471,-1.541090369,0
1536692158506174744,48.17404556,6.355100155,63.48734665,0,3.244175434,21.95107841,-1.461074948,0
1536692158623730328,48.17404556,6.355100155,63.48734665,0,2.95134449,21.9670639,-1.396011472,0
1536692158681985816,48.17404556,6.355100155,63.48734665,0,2.380295038,21.98904991,-1.261584044,0
1536692158722888920,48.17404556,6.355100155,63.48734665,0,2.243484974,21.99381065,-1.223901153,0
1536692158762833272,45.37459946,4.892261982,71.93482971,0,1.668523908,22.00653458,-1.118933678,0
1536692158825202072,45.37459946,4.892261982,71.93482971,0,1.493746161,22.00971222,-1.102176309,0
1536692158873057336,45.37459946,4.892261982,71.93482971,0,1.008058667,22.00683784,-1.089874864,0
1536692158898847544,45.37459946,4.892261982,71.93482971,0,0.395480096,21.99210358,-1.034744143,0
1536692158959401368,45.37459946,4.892261982,71.93482971,0,0.252267122,21.98637772,-1.013064861,0
1536692159023789976,45.37459946,4.892261982,71.93482971,0,-0.029329209,21.97059059,-0.958918929,0
1536692159075550392,45.31440353,3.9336164,78.58594513,0,-0.428025752,21.94079208,-0.865628302,0
1536692159111217464,45.31440353,3.9336164,78.58594513,0,-0.671943843,21.91616058,-0.806409061,0
1536692159189664536,45.31440353,3.9336164,78.58594513,0,-1.059760094,21.87564087,-0.705580771,0
1536692159218104024,45.31440353,3.9336164,78.58594513,0,-1.332743168,21.84135246,-0.624786556,0
1536692159259901560,45.31440353,3.9336164,78.58594513,0,-1.851868749,21.77424431,-0.45690003,0
1536692159351639384,45.31440353,3.9336164,78.58594513,0,-2.116580248,21.7329216,-0.390338302,0
1536692159371330328,45.31440353,3.9336164,78.58594513,0,-2.492586613,21.6669178,-0.282582909,0
1536692159402218424,45.31440353,3.9336164,78.58594513,0,-3.000430346,21.56448555,-0.171568304,0
1536692159473323992,45.31440353,3.9336164,78.58594513,0,-3.264436483,21.50943947,-0.132349283,0
1536692159504327064,43.79446411,2.224924803,87.28984833,0,-3.527374983,21.4470787,-0.102023751,0
1536692159559412952,43.79446411,2.224924803,87.28984833,0,-3.90588665,21.35793114,-0.057597026,0
1536692159608397752,43.79446411,2.224924803,87.28984833,0,-4.170452118,21.29046059,-0.031275455,0
1536692159687835416,43.79446411,2.224924803,87.28984833,0,-4.558597088,21.18350601,-0.001760121,0
1536692159736307288,43.79446411,2.224924803,87.28984833,0,-4.679277897,21.14690971,0.008136652,0
1536692159795274936,43.79446411,2.224924803,87.28984833,0,-5.051188469,21.04135513,0.015882058,0
1536692159812691576,43.79446411,2.224924803,87.28984833,0,-5.328104973,20.95422554,-0.006494799,0
1536692159881212984,43.79446411,2.224924803,87.28984833,0,-5.587557793,20.86961555,-0.041662406,0
1536692159913157592,43.79446411,2.224924803,87.28984833,0,-5.964540482,20.74018288,-0.101554029,0
1536692159946108568,40.36923981,0.117066771,97.06394959,0,-6.209583759,20.64505577,-0.148198962,0
1536692159988940728,40.36923981,0.117066771,97.06394959,0,-6.52822113,20.51171303,-0.203355372,0
1536692160040738264,40.36923981,0.117066771,97.06394959,0,-6.854378223,20.35995483,-0.288873672,0
1536692160111017720,40.36923981,0.117066771,97.06394959,0,-6.940027714,20.32108116,-0.317964613,0
1536692160125755672,40.36923981,0.117066771,97.06394959,0,-7.310174942,20.12719345,-0.426262677,0
1536692160192881400,40.36923981,0.117066771,97.06394959,0,-7.474820614,20.03512764,-0.47841391,0
1536692160237235576,40.36923981,0.117066771,97.06394959,0,-7.753986835,19.85706902,-0.553048909,0
1536692160264499160,40.36923981,0.117066771,97.06394959,0,-7.995604992,19.67934227,-0.642081797,0
1536692160320485208,34.35679245,-0.510038972,104.1318436,0,-8.041614532,19.64221573,-0.665151715,0
1536692160373650616,34.35679245,-0.510038972,104.1318436,0,-8.202962875,19.50706863,-0.762972772,0
1536692160397471992,34.35679245,-0.510038972,104.1318436,0,-8.325925827,19.3883419,-0.826026857,0
1536692160485233912,34.35679245,-0.510038972,104.1318436,0,-8.395355225,19.31695747,-0.86379391,0
1536692160499902488,34.35679245,-0.510038972,104.1318436,0,-8.44520092,19.24892616,-0.880940676,0
1536692160561584376,34.35679245,-0.510038972,104.1318436,0,-8.527176857,19.11275291,-0.925497532,0
1536692160594177016,34.35679245,-0.510038972,104.1318436,0,-8.534373283,19.09110069,-0.919559598,0
1536692160661870808,34.35679245,-0.510038972,104.1318436,0,-8.55992794,19.00671959,-0.914683819,0
1536692160728970680,34.35679245,-0.510038972,104.1318436,0,-8.566217422,18.93330956,-0.911463678,0
1536692160800699672,21.05774879,0.056328677,110.6098022,0,-8.552483559,18.89078522,-0.905910075,0
1536692160819616088,21.05774879,0.056328677,110.6098022,0,-8.527855873,18.8299942,-0.902707279,0
1536692160864888056,21.05774879,0.056328677,110.6098022,0,-8.497800827,18.79542923,-0.886459649,0
1536692160896348728,21.05774879,0.056328677,110.6098022,0,-8.46069622,18.76587486,-0.859429717,0
1536692160971923448,21.05774879,0.056328677,110.6098022,0,-8.368420601,18.70972061,-0.770811915,0
1536692160996999512,21.05774879,0.056328677,110.6098022,0,-8.350924492,18.69721413,-0.7530213,0
1536692161093586104,21.05774879,0.056328677,110.6098022,0,-8.264556885,18.66407013,-0.694134891,0
1536692161122435416,10.18041706,0.3135297,113.6886826,0,-8.201138496,18.64380074,-0.677364349,0
1536692161158569432,10.18041706,0.3135297,113.6886826,0,-8.001125336,18.59502602,-0.57244873,0
1536692161242931352,10.18041706,0.3135297,113.6886826,0,-7.850378037,18.57364464,-0.464896649,0
1536692161262083160,10.18041706,0.3135297,113.6886826,0,-7.725754738,18.56620216,-0.396082133,0
1536692161293596504,10.18041706,0.3135297,113.6886826,0,-7.635810375,18.56352615,-0.362323731,0
1536692161369652248,10.18041706,0.3135297,113.6886826,0,-7.431261063,18.56891632,-0.322437018,0
1536692161414128408,10.18041706,0.3135297,113.6886826,0,-7.319657803,18.57588005,-0.308398366,0
1536692161454764216,10.18041706,0.3135297,113.6886826,0,-7.147210598,18.58267212,-0.277091712,0
1536692161515594648,10.18041706,0.3135297,113.6886826,0,-7.097179413,18.58825493,-0.266263545,0
1536692161559676312,10.18041706,0.3135297,113.6886826,0,-6.911360741,18.60808945,-0.206440479,0
1536692161615748376,-5.299479961,-0.047394041,115.5888062,0,-6.668165207,18.6408577,-0.11643032,0
1536692161723201848,-5.299479961,-0.047394041,115.5888062,0,-6.482061863,18.65971756,-0.023474108,0
1536692161791049752,-5.299479961,-0.047394041,115.5888062,0,-6.239573479,18.68557167,0.15513359,0
1536692161818883800,-5.299479961,-0.047394041,115.5888062,0,-6.115338802,18.70117188,0.245572105,0
1536692161867294712,-5.299479961,-0.047394041,115.5888062,0,-5.994957447,18.71933365,0.325497538,0
1536692161904990616,-5.299479961,-0.047394041,115.5888062,0,-5.807507038,18.74695969,0.433005542,0
1536692161996016856,-5.299479961,-0.047394041,115.5888062,0,-5.684171677,18.76295662,0.513819396,0
1536692162015433272,-5.299479961,-0.047394041,115.5888062,0,-5.500449181,18.78903008,0.63456887,0
1536692162069966072,-5.299479961,-0.047394041,115.5888062,0,-5.316431522,18.81744385,0.775249362,0
1536692162108137272,-15.53111076,-0.791158915,113.530304,0,-5.203773499,18.83742142,0.868011236,0
1536692162147411896,-15.53111076,-0.791158915,113.530304,0,-5.024571896,18.85915184,1.003025174,0
1536692162254915672,-15.53111076,-0.791158915,113.530304,0,-4.971373558,18.86972427,1.057818294,0
1536692162304526808,-15.53111076,-0.791158915,113.530304,0,-4.793852806,18.88937759,1.204443812,0
1536692162383996184,-15.53111076,-0.791158915,113.530304,0,-4.671767235,18.90885735,1.291165352,0
1536692162420966840,-15.53111076,-0.791158915,113.530304,0,-4.498661995,18.94018364,1.392208695,0
1536692162476811320,-18.76725769,-2.467422962,110.1289825,0,-4.444381714,18.95047379,1.439330101,0
1536692162535177976,-18.76725769,-2.467422962,110.1289825,0,-4.258357048,18.97476768,1.542508602,0
1536692162568913624,-18.76725769,-2.467422962,110.1289825,0,-4.203866959,18.98683548,1.586061478,0
1536692162635593400,-18.76725769,-2.467422962,110.1289825,0,-4.023001194,19.0085907,1.681462646,0
1536692162680991800,-18.76725769,-2.467422962,110.1289825,0,-3.904696465,19.0280838,1.742031574,0
1536692162728274840,-18.76725769,-2.467422962,110.1289825,0,-3.783965588,19.04516983,1.796037197,0
1536692162791675160,-18.76725769,-2.467422962,110.1289825,0,-3.666017771,19.06653976,1.842425704,0
1536692162819460728,-18.76725769,-2.467422962,110.1289825,0,-3.486987352,19.09871674,1.892047524,0
1536692162862179576,-18.76725769,-2.467422962,110.1289825,0,-3.372700214,19.12048721,1.931144118,0
1536692162897312696,-18.76725769,-2.467422962,110.1289825,0,-3.185636044,19.15099525,1.979714632,0
1536692162967324984,-18.9812851,-4.632980824,105.5989227,0,-2.946572304,19.19009781,2.015331745,0
1536692163005816312,-18.9812851,-4.632980824,105.5989227,0,-2.716016054,19.23283196,2.044664145,0
1536692163034634584,-18.9812851,-4.632980824,105.5989227,0,-2.595320463,19.25726128,2.048155069,0
1536692163071987480,-18.9812851,-4.632980824,105.5989227,0,-2.476946354,19.27938461,2.05543685,0
1536692163128021240,-18.9812851,-4.632980824,105.5989227,0,-2.304755688,19.31228447,2.066401243,0
1536692163165609368,-18.9812851,-4.632980824,105.5989227,0,-2.24514246,19.32362175,2.051483631,0
1536692163218704792,-18.9812851,-4.632980824,105.5989227,0,-2.12633276,19.34750175,2.043957949,0
1536692163237512280,-18.9812851,-4.632980824,105.5989227,0,-1.893134117,19.38871765,2.021458626,0
1536692163319362424,-17.91642952,-5.289533615,102.3197098,0,-1.839293003,19.39969063,2.003684998,0
1536692163345262680,-17.91642952,-5.289533615,102.3197098,0,-1.677670479,19.42960739,1.974442124,0
1536692163415137560,-17.91642952,-5.289533615,102.3197098,0,-1.526926517,19.454916,1.967078924,0
1536692163479034776,-17.91642952,-5.289533615,102.3197098,0,-1.429487467,19.4730835,1.942697883,0
1536692163558297688,-17.91642952,-5.289533615,102.3197098,0,-1.230939627,19.5170784,1.904636383,0
1536692163621156056,-17.91642952,-5.289533615,102.3197098,0,-0.94006151,19.57217598,1.797632337,0
1536692163650160184,-17.91642952,-5.289533615,102.3197098,0,-0.797526002,19.59431648,1.747637868,0
1536692163714540056,-15.5924511,-5.557066917,98.41943359,0,-0.661659062,19.61638832,1.706149697,0
1536692163740792760,-15.5924511,-5.557066917,98.41943359,0,-0.528445303,19.63206673,1.654446721,0
1536692163766752824,-15.5924511,-5.557066917,98.41943359,0,-0.323091894,19.65681076,1.591550827,0
1536692163859913752,-15.5924511,-5.557066917,98.41943359,0,-0.207360893,19.67145157,1.551954865,0
1536692163876264824,-15.5924511,-5.557066917,98.41943359,0,-0.143733189,19.67002106,1.51170814,0
1536692163924294520,-15.5924511,-5.557066917,98.41943359,0,-0.043070253,19.67671776,1.453925014,0
1536692163998644440,-15.5924511,-5.557066917,98.41943359,0,0.085970089,19.67926788,1.368700743,0
1536692164010213048,-15.5924511,-5.557066917,98.41943359,0,0.250189841,19.68651199,1.192140341,0
1536692164111604600,-15.5924511,-5.557066917,98.41943359,0,0.323514462,19.68682671,1.085092306,0
1536692164214773560,-11.81000805,-5.001214981,93.70077515,0,0.368952066,19.679842,1.025069594,0
1536692164290879672,-11.81000805,-5.001214981,93.70077515,0,0.405660808,19.67723274,0.955775678,0
1536692164348555576,-11.81000805,-5.001214981,93.70077515,0,0.478053063,19.66141701,0.821135342,0
1536692164395217336,-11.81000805,-5.001214981,93.70077515,0,0.518155217,19.65260506,0.762098074,0
1536692164476195928,-11.81000805,-5.001214981,93.70077515,0,0.539681137,19.64689636,0.691592634,0
1536692164551235736,-11.81000805,-5.001214981,93.70077515,0,0.586769044,19.62821388,0.611248791,0
1536692164573800536,-11.81000805,-5.001214981,93.70077515,0,0.601786375,19.6099472,0.5441342,0
1536692164608565176,-7.324023724,-3.68134141,89.78178406,0,0.655954063,19.57689857,0.391286582,0
1536692164664520280,-7.324023724,-3.68134141,89.78178406,0,0.657059491,19.54463959,0.29823333,0
1536692164753684824,-7.324023724,-3.68134141,89.78178406,0,0.666020751,19.54263687,0.274492145,0
1536692164867427512,-7.324023724,-3.68134141,89.78178406,0,0.654806376,19.52172852,0.218405649,0
1536692164906125464,-7.324023724,-3.68134141,89.78178406,0,0.651588678,19.5019474,0.169750169,0
1536692164956709560,-7.324023724,-3.68134141,89.78178406,0,0.650422931,19.47157097,0.145962268,0
1536692165013931192,-3.450863123,-1.783070564,87.86053467,0,0.634808064,19.45443916,0.117191568,0
1536692165082087992,-3.450863123,-1.783070564,87.86053467,0,0.637875676,19.43561172,0.098656833,0
1536692165125269240,-3.450863123,-1.783070564,87.86053467,0,0.615612626,19.40923691,0.038786922,0
1536692165162693368,-3.450863123,-1.783070564,87.86053467,0,0.603326499,19.39472961,0.005337318,0
1536692165224160984,-3.450863123,-1.783070564,87.86053467,0,0.581791461,19.37212181,-0.026757937,0
1536692165259095864,-3.450863123,-1.783070564,87.86053467,0,0.546707392,19.33851624,-0.100279227,0
1536692165392826232,-3.450863123,-1.783070564,87.86053467,0,0.538493514,19.32564163,-0.102608897,0
1536692165457600984,-3.450863123,-1.783070564,87.86053467,0,0.507354915,19.29543877,-0.095613658,0
1536692165477963928,-3.450863123,-1.783070564,87.86053467,0,0.501186311,19.28898048,-0.097997159,0
1536692165514646840,1.545885444,0.227314994,86.24705505,0,0.468807131,19.26067925,-0.135060996,0
1536692165557043256,1.545885444,0.227314994,86.24705505,0,0.4404791,19.24830437,-0.176238671,0
1536692165628063896,1.545885444,0.227314994,86.24705505,0,0.411759198,19.22039413,-0.220600381,0
1536692165663510456,1.545885444,0.227314994,86.24705505,0,0.375898242,19.20190239,-0.244123563,0
1536692165703252216,1.545885444,0.227314994,86.24705505,0,0.326558262,19.16854668,-0.258441985,0
1536692165763891224,1.545885444,0.227314994,86.24705505,0,0.315136015,19.15760422,-0.258605897,0
1536692165813521944,1.545885444,0.227314994,86.24705505,0,0.255990505,19.12366486,-0.272300541,0
1536692165840764824,1.545885444,0.227314994,86.24705505,0,0.204308897,19.10202026,-0.311951131,0
1536692165926659480,1.545885444,0.227314994,86.24705505,0,0.182703927,19.08607674,-0.319207877,0
1536692165955311896,5.236968517,1.166057944,85.59355927,0,0.137349039,19.07017517,-0.341981232,0
1536692166031026904,5.236968517,1.166057944,85.59355927,0,0.065286472,19.03355217,-0.364326507,0
1536692166055938552,5.236968517,1.166057944,85.59355927,0,0.034923185,19.01437378,-0.355737537,0
1536692166081457048,5.236968517,1.166057944,85.59355927,0,-0.004828203,19.00265884,-0.344895244,0
1536692166140538296,5.236968517,1.166057944,85.59355927,0,-0.048866153,18.97942352,-0.31859073,0
1536692166202430168,5.236968517,1.166057944,85.59355927,0,-0.07150951,18.96987915,-0.31660521,0
1536692166229576024,5.236968517,1.166057944,85.59355927,0,-0.110389292,18.94385719,-0.297636271,0
1536692166294327640,5.236968517,1.166057944,85.59355927,0,-0.163888156,18.91453362,-0.296613693,0
1536692166344378488,5.236968517,1.166057944,85.59355927,0,-0.19325909,18.90257835,-0.290555358,0
1536692166441196536,5.236968517,1.166057944,85.59355927,0,-0.223659977,18.87421608,-0.282343119,0
1536692166479886904,6.464187145,1.636103868,86.5425415,0,-0.260572761,18.85412979,-0.291054219,0
1536692166523056248,6.464187145,1.636103868,86.5425415,0,-0.272805423,18.84009552,-0.280451894,0
1536692166568598072,6.464187145,1.636103868,86.5425415,0,-0.318335891,18.81561661,-0.274041116,0
1536692166656057464,6.464187145,1.636103868,86.5425415,0,-0.363236845,18.78580856,-0.235016093,0
1536692166680916408,6.464187145,1.636103868,86.5425415,0,-0.38009885,18.77884102,-0.207225323,0
1536692166726758680,6.464187145,1.636103868,86.5425415,0,-0.399539471,18.76233101,-0.184189349,0
1536692166791791320,6.464187145,1.636103868,86.5425415,0,-0.427809805,18.7465229,-0.162635654,0
1536692166807552408,7.652688026,1.914855003,87.25019836,0,-0.432017356,18.72956276,-0.132001728,0
1536692166857486488,7.652688026,1.914855003,87.25019836,0,-0.440700322,18.72019768,-0.132609069,0
1536692166924063576,7.652688026,1.914855003,87.25019836,0,-0.435127825,18.70942688,-0.104593739,0
1536692166964287544,7.652688026,1.914855003,87.25019836,0,-0.449636966,18.69067383,-0.079735793,0
1536692167012162584,7.652688026,1.914855003,87.25019836,0,-0.443708301,18.69027901,-0.060351089,0
1536692167058149496,7.652688026,1.914855003,87.25019836,0,-0.449676991,18.67299843,-0.031354506,0
1536692167096214712,7.652688026,1.914855003,87.25019836,0,-0.445791006,18.66250038,0.000393405,0
1536692167160744472,6.26765728,2.025347471,87.89258575,0,-0.433053434,18.65407944,0.028058998,0
1536692167250428376,6.26765728,2.025347471,87.89258575,0,-0.419495374,18.64441109,0.076207615,0
1536692167280062296,6.26765728,2.025347471,87.89258575,0,-0.419552267,18.64184189,0.09285114,0
1536692167300976888,6.26765728,2.025347471,87.89258575,0,-0.414666176,18.63658333,0.103824995,0
1536692167363927544,6.26765728,2.025347471,87.89258575,0,-0.403311074,18.63743019,0.141541809,0
1536692167445795992,6.26765728,2.025347471,87.89258575,0,-0.384298116,18.63541222,0.167606845,0
1536692167462956472,6.26765728,2.025347471,87.89258575,0,-0.380226552,18.63314056,0.173827052,0
1536692167513060408,6.26765728,2.025347471,87.89258575,0,-0.369523346,18.6348896,0.184591845,0
1536692167556193720,6.26765728,2.025347471,87.89258575,0,-0.369100958,18.63388062,0.16180779,0
1536692167602211800,6.26765728,2.025347471,87.89258575,0,-0.357832015,18.63888741,0.160673797,0
1536692167639622552,3.70634079,1.190663457,88.34212494,0,-0.352951735,18.63864517,0.159500822,0
1536692167681651640,3.70634079,1.190663457,88.34212494,0,-0.357040584,18.63752174,0.15393874,0
1536692167722630104,3.70634079,1.190663457,88.34212494,0,-0.340079665,18.6461544,0.166477367,0
1536692167823543768,3.70634079,1.190663457,88.34212494,0,-0.343449444,18.64447975,0.158130214,0
1536692167883828856,3.70634079,1.190663457,88.34212494,0,-0.317862034,18.65224266,0.164241984,0
1536692167897584376,3.70634079,1.190663457,88.34212494,0,-0.287333071,18.65852928,0.159201711,0
1536692167935043992,3.70634079,1.190663457,88.34212494,0,-0.2855995,18.65976334,0.152736768,0
1536692167996104984,3.70634079,1.190663457,88.34212494,0,-0.253255337,18.66662979,0.158931226,0
1536692168046851256,1.936751843,0.552070856,88.78317261,0,-0.240057737,18.66776466,0.156458423,0
1536692168071012216,1.936751843,0.552070856,88.78317261,0,-0.225940853,18.66649628,0.165655136,0
1536692168126085592,1.936751843,0.552070856,88.78317261,0,-0.205227554,18.6742363,0.183200002,0
1536692168163979576,1.936751843,0.552070856,88.78317261,0,-0.157573283,18.67990494,0.209862754,0
1536692168199692536,1.936751843,0.552070856,88.78317261,0,-0.157017961,18.67951584,0.20709306,0
1536692168291368856,1.936751843,0.552070856,88.78317261,0,-0.108727284,18.68422318,0.222232699,0
1536692168309917976,1.94469893,0.568665206,88.70914459,0,-0.079328038,18.68520737,0.208503127,0
1536692168361084152,1.94469893,0.568665206,88.70914459,0,-0.011449714,18.69253922,0.202356711,0
1536692168416741752,1.94469893,0.568665206,88.70914459,0,0.036348581,18.69864082,0.192432925,0
1536692168510376248,1.94469893,0.568665206,88.70914459,0,0.072402917,18.70415497,0.20497565,0
1536692168545647224,1.94469893,0.568665206,88.70914459,0,0.093841478,18.70090103,0.220123559,0
1536692168616973176,1.94469893,0.568665206,88.70914459,0,0.147125274,18.71090698,0.21997273,0
1536692168645931448,1.94469893,0.568665206,88.70914459,0,0.170063555,18.72432709,0.202119067,0
1536692168659955128,1.94469893,0.568665206,88.70914459,0,0.189144924,18.72548866,0.187750503,0
1536692168710457624,1.001166344,0.499300927,87.77313232,0,0.211619094,18.7396183,0.162563041,0
1536692168807210712,1.001166344,0.499300927,87.77313232,0,0.228338897,18.74977875,0.149018064,0
1536692168823328696,1.001166344,0.499300927,87.77313232,0,0.240467951,18.75921059,0.157094434,0
1536692168864158232,1.001166344,0.499300927,87.77313232,0,0.239594728,18.76052666,0.1420912,0
1536692168902619672,1.001166344,0.499300927,87.77313232,0,0.252306014,18.76747322,0.141964972,0
1536692169019132120,1.001166344,0.499300927,87.77313232,0,0.25940147,18.77251816,0.109250784,0
1536692169098011576,1.001166344,0.499300927,87.77313232,0,0.245626315,18.77345085,0.079506353,0
1536692169163651320,1.001166344,0.499300927,87.77313232,0,0.252670527,18.77607346,0.074441314,0
1536692169217115704,1.001166344,0.499300927,87.77313232,0,0.24128364,18.77423668,0.028692702,0
1536692169298819992,0.997640669,0.324348718,87.44554901,0,0.242967516,18.77462387,0.023536792,0
1536692169357651544,0.997640669,0.324348718,87.44554901,0,0.230361491,18.77654457,0.002967953,0
1536692169416433624,0.997640669,0.324348718,87.44554901,0,0.231180608,18.77390099,-0.024846332,0
1536692169448322008,0.997640669,0.324348718,87.44554901,0,0.218049005,18.77544975,-0.056453995,0
1536692169574454392,0.997640669,0.324348718,87.44554901,0,0.216036841,18.76737213,-0.085981093,0
1536692169630925464,0.997640669,0.324348718,87.44554901,0,0.188963383,18.76557541,-0.11636135,0
1536692169644056760,0.997640669,0.324348718,87.44554901,0,0.18575269,18.76425171,-0.123987094,0
1536692169711468664,0.997640669,0.324348718,87.44554901,0,0.160991564,18.76054573,-0.153466552,0
1536692169740302264,3.008786201,0.673509717,87.07094574,0,0.161720321,18.7566433,-0.168239981,0
1536692169816894424,3.008786201,0.673509717,87.07094574,0,0.145262942,18.75727463,-0.186974183,0
1536692169877723736,3.008786201,0.673509717,87.07094574,0,0.122489475,18.74744225,-0.196850866,0
1536692169937028760,3.008786201,0.673509717,87.07094574,0,0.104820333,18.74723434,-0.193320334,0
1536692170027037688,3.008786201,0.673509717,87.07094574,0,0.098591372,18.73904037,-0.177793697,0
1536692170042147064,3.008786201,0.673509717,87.07094574,0,0.098094337,18.74008369,-0.161974534,0
1536692170077033336,4.462516308,1.216812849,86.69692993,0,0.078983024,18.73352242,-0.164148927,0
1536692170155831160,4.462516308,1.216812849,86.69692993,0,0.076663971,18.7267189,-0.165028259,0
1536692170201306424,4.462516308,1.216812849,86.69692993,0,0.07531666,18.71794891,-0.191701189,0
1536692170238923736,4.462516308,1.216812849,86.69692993,0,0.085563906,18.71466255,-0.236118287,0
1536692170281847832,4.462516308,1.216812849,86.69692993,0,0.097011872,18.69983101,-0.30055052,0
1536692170367343416,4.462516308,1.216812849,86.69692993,0,0.11164128,18.6928196,-0.301735163,0
1536692170421699768,4.462516308,1.216812849,86.69692993,0,0.108593784,18.68279266,-0.304312676,0
1536692170443838680,5.459640026,1.65393877,86.63494873,0,0.112153694,18.68361473,-0.29870227,0
1536692170492353560,5.459640026,1.65393877,86.63494873,0,0.102732226,18.67667198,-0.299352288,0
1536692170538714968,5.459640026,1.65393877,86.63494873,0,0.099682003,18.67490578,-0.270299494,0
1536692170607977048,5.459640026,1.65393877,86.63494873,0,0.080162168,18.66858864,-0.260790884,0
1536692170636753240,5.459640026,1.65393877,86.63494873,0,0.056498554,18.6627903,-0.222046673,0
1536692170685171064,5.459640026,1.65393877,86.63494873,0,0.033949547,18.653162,-0.182441428,0
1536692170729705080,5.459640026,1.65393877,86.63494873,0,-0.023723913,18.6469841,-0.168923035,0
1536692170801126744,5.459640026,1.65393877,86.63494873,0,-0.059688006,18.63768768,-0.194445446,0
1536692170838433432,4.768054485,2.060733318,86.3536911,0,-0.065686867,18.63858795,-0.196023077,0
1536692170894784632,4.768054485,2.060733318,86.3536911,0,-0.096552521,18.63625145,-0.205921113,0
1536692171032411416,4.768054485,2.060733318,86.3536911,0,-0.108243808,18.63199806,-0.20856747,0
1536692171100085912,4.768054485,2.060733318,86.3536911,0,-0.138175786,18.63035774,-0.214953288,0
1536692171139270584,4.768054485,2.060733318,86.3536911,0,-0.149741516,18.62662125,-0.212276101,0
1536692171195543608,4.768054485,2.060733318,86.3536911,0,-0.179607391,18.62945938,-0.169784606,0
1536692171238710936,4.768054485,2.060733318,86.3536911,0,-0.224066675,18.62631416,-0.145896405,0
1536692171287125880,4.768054485,2.060733318,86.3536911,0,-0.243563145,18.626091,-0.098520845,0
1536692171355467704,4.768054485,2.060733318,86.3536911,0,-0.386695981,18.63850594,-0.034109395,0
1536692171424071032,4.768054485,2.060733318,86.3536911,0,-0.459848434,18.63843536,-0.043442257,0
1536692171466295128,6.031444073,2.018496275,86.6770401,0,-0.5226475,18.6372242,-0.058410503,0
1536692171565523384,6.031444073,2.018496275,86.6770401,0,-0.663767695,18.63795853,-0.083492808,0
1536692171631130872,6.031444073,2.018496275,86.6770401,0,-0.7436589,18.63463402,-0.068577155,0
1536692171657061400,6.031444073,2.018496275,86.6770401,0,-0.893232882,18.63847542,-0.042591728,0
1536692171676070936,6.031444073,2.018496275,86.6770401,0,-0.980569661,18.63978577,-0.035485815,0
1536692171734007416,6.031444073,2.018496275,86.6770401,0,-1.215214133,18.64373779,-0.031053405,0
1536692171814438584,6.031444073,2.018496275,86.6770401,0,-1.377540946,18.65038872,0.023919009,0
1536692171832729784,6.031444073,2.018496275,86.6770401,0,-1.568819523,18.65475273,0.046863429,0
1536692171872850232,6.031444073,2.018496275,86.6770401,0,-1.792959571,18.67107391,0.016428685,0
1536692171922712152,8.489441872,2.159762621,86.60494995,0,-1.93185246,18.6727829,0.01404991,0
1536692171966614936,8.489441872,2.159762621,86.60494995,0,-2.134619236,18.68439484,0.023684254,0
1536692172007920792,8.489441872,2.159762621,86.60494995,0,-2.403685808,18.68914032,0.084237725,0
1536692172125506520,8.489441872,2.159762621,86.60494995,0,-2.467101336,18.69184685,0.111628748,0
1536692172160223768,8.489441872,2.159762621,86.60494995,0,-2.6924088,18.70483398,0.292631358,0
1536692172210785336,8.489441872,2.159762621,86.60494995,0,-2.739186764,18.71038628,0.354045868,0
1536692172259742104,15.18893337,1.745449662,88.05097961,0,-2.992698431,18.73158646,0.531290114,0
1536692172300878424,15.18893337,1.745449662,88.05097961,0,-3.138686419,18.73358536,0.604198635,0
1536692172358389496,15.18893337,1.745449662,88.05097961,0,-3.330333233,18.74277496,0.724005044,0
1536692172407493240,15.18893337,1.745449662,88.05097961,0,-3.497997284,18.74620819,0.79875195,0
1536692172458077816,15.18893337,1.745449662,88.05097961,0,-3.595852613,18.7496624,0.832002997,0
1536692172549748952,15.18893337,1.745449662,88.05097961,0,-3.988691092,18.74824142,0.954680026,0
1536692172614328984,22.09060669,1.510381818,89.15586853,0,-4.175798893,18.74697304,1.034862399,0
1536692172658480760,22.09060669,1.510381818,89.15586853,0,-4.45904398,18.74418259,1.160767794,0
1536692172700281144,22.09060669,1.510381818,89.15586853,0,-4.910525322,18.71748352,1.29509294,0
1536692172760055096,22.09060669,1.510381818,89.15586853,0,-5.271936893,18.68706703,1.357448459,0
1536692172853199480,22.09060669,1.510381818,89.15586853,0,-5.69837141,18.64452171,1.373075604,0
1536692172876979384,22.09060669,1.510381818,89.15586853,0,-6.181053162,18.58460808,1.328608274,0
1536692172910430232,22.09060669,1.510381818,89.15586853,0,-6.505858898,18.53842354,1.292075992,0
1536692172978768152,30.76502609,0.587903082,91.84163666,0,-6.669437408,18.51291656,1.269725323,0
1536692173048174488,30.76502609,0.587903082,91.84163666,0,-7.174453735,18.41885948,1.173624754,0
1536692173080362808,30.76502609,0.587903082,91.84163666,0,-7.685999393,18.31723785,1.08479166,0
1536692173147078680,30.76502609,0.587903082,91.84163666,0,-8.355566025,18.16969872,1.003946662,0
1536692173197826840,30.76502609,0.587903082,91.84163666,0,-8.833036423,18.04875374,0.926109672,0
1536692173215801400,30.76502609,0.587903082,91.84163666,0,-9.168434143,17.96535492,0.888909638,0
1536692173260240344,30.76502609,0.587903082,91.84163666,0,-9.818040848,17.75754547,0.777152836,0
1536692173292312440,30.76502609,0.587903082,91.84163666,0,-10.32798195,17.57278633,0.664805114,0
1536692173353584760,30.76502609,0.587903082,91.84163666,0,-10.66886997,17.44228935,0.591560245,0
1536692173399228152,30.76502609,0.587903082,91.84163666,0,-11.02120209,17.30476379,0.526049078,0
1536692173506907736,37.36048508,-2.399353981,102.7149658,0,-11.34947109,17.1463356,0.440688968,0
1536692173588392216,37.36048508,-2.399353981,102.7149658,0,-11.68854713,16.99736404,0.392172307,0
1536692173648774744,37.36048508,-2.399353981,102.7149658,0,-12.14540482,16.76627541,0.314202458,0
1536692173681905400,37.36048508,-2.399353981,102.7149658,0,-12.47050667,16.60232544,0.270068586,0
1536692173705950488,37.36048508,-2.399353981,102.7149658,0,-12.92784882,16.33656693,0.210674301,0
1536692173759496696,37.36048508,-2.399353981,102.7149658,0,-13.22584534,16.16922188,0.184824288,0
1536692173818002328,37.36048508,-2.399353981,102.7149658,0,-13.68721485,15.87615585,0.123468846,0
1536692173909194840,37.36048508,-2.399353981,102.7149658,0,-13.96155643,15.68620968,0.094857156,0
1536692173959035352,41.96603012,-0.223186776,112.3849411,0,-14.85313511,15.04806042,0.017311269,0
1536692174004910008,41.96603012,-0.223186776,112.3849411,0,-15.12444592,14.82017422,-0.010032032,0
1536692174083887128,41.96603012,-0.223186776,112.3849411,0,-15.53382206,14.47670555,-0.04555811,0
1536692174139940984,41.96603012,-0.223186776,112.3849411,0,-15.83228111,14.21936893,-0.102504238,0
1536692174208253400,41.96603012,-0.223186776,112.3849411,0,-16.25738525,13.81187248,-0.201751336,0
1536692174224896600,41.96603012,-0.223186776,112.3849411,0,-16.51498604,13.54745865,-0.278604954,0
1536692174258807480,41.96603012,-0.223186776,112.3849411,0,-16.81629181,13.23100758,-0.38362819,0
1536692174300964696,43.12937546,1.209970236,121.8487473,0,-17.0773201,12.91856956,-0.472326785,0
1536692174362821368,43.12937546,1.209970236,121.8487473,0,-17.34051323,12.62822723,-0.546872616,0
1536692174410200888,43.12937546,1.209970236,121.8487473,0,-17.6049633,12.29340935,-0.626662433,0
1536692174488799224,43.12937546,1.209970236,121.8487473,0,-17.84137726,11.98895359,-0.697448254,0
1536692174504836984,43.12937546,1.209970236,121.8487473,0,-18.19408226,11.51772404,-0.789390028,0
1536692174561573464,43.12937546,1.209970236,121.8487473,0,-18.62083817,10.87821674,-0.878287792,0
1536692174603809144,43.12937546,1.209970236,121.8487473,0,-19.21345711,9.888765335,-0.990069091,0
1536692174724971768,44.98167801,1.733759999,132.5696869,0,-19.48496819,9.375008583,-1.040113211,0
1536692174761448920,44.98167801,1.733759999,132.5696869,0,-19.56050682,9.229581833,-1.047084451,0
1536692174839805848,44.98167801,1.733759999,132.5696869,0,-19.81686974,8.706473351,-1.091211677,0
1536692174875266424,44.98167801,1.733759999,132.5696869,0,-19.96128654,8.343824387,-1.127572417,0
1536692174924201720,44.98167801,1.733759999,132.5696869,0,-20.32220459,7.474533081,-1.211007237,0
1536692174971116760,44.98167801,1.733759999,132.5696869,0,-20.61081314,6.602685928,-1.308318496,0
1536692175006479224,45.18063736,2.568573713,140.1748047,0,-20.78603172,6.049063206,-1.379360914,0
1536692175038189144,45.18063736,2.568573713,140.1748047,0,-20.89600182,5.649422169,-1.448027134,0
1536692175095359384,45.18063736,2.568573713,140.1748047,0,-21.09361839,4.716953754,-1.588563919,0
1536692175116028760,45.18063736,2.568573713,140.1748047,0,-21.16307068,4.195537567,-1.64889276,0
1536692175158172248,45.18063736,2.568573713,140.1748047,0,-21.21602058,3.85561347,-1.678518653,0
1536692175221237336,45.18063736,2.568573713,140.1748047,0,-21.26601791,3.196684599,-1.718563557,0
1536692175303551608,45.18063736,2.568573713,140.1748047,0,-21.28145599,2.895192385,-1.725767732,0
1536692175431344440,46.55622101,3.45836854,150.4745789,0,-21.27890778,2.451576948,-1.741396427,0
1536692175481726040,46.55622101,3.45836854,150.4745789,0,-21.28228951,2.002245188,-1.739102244,0
1536692175517855448,46.55622101,3.45836854,150.4745789,0,-21.26784515,1.724976301,-1.747900844,0
1536692175559335192,46.55622101,3.45836854,150.4745789,0,-21.23554802,1.432009578,-1.76722002,0
1536692175607996184,46.55622101,3.45836854,150.4745789,0,-21.17863083,0.983497918,-1.828215003,0
1536692175673033624,46.55622101,3.45836854,150.4745789,0,-21.15528297,0.834896922,-1.845165849,0
1536692175770438008,46.55622101,3.45836854,150.4745789,0,-21.08539963,0.397985101,-1.889665961,0
1536692175837770456,46.65024185,3.758205414,162.0353699,0,-21.022398,0.117198981,-1.92177248,0
1536692175866536664,46.65024185,3.758205414,162.0353699,0,-20.96042633,-0.152666286,-1.95211947,0
1536692175905675928,46.65024185,3.758205414,162.0353699,0,-20.88863945,-0.432963967,-2.001492977,0
1536692176003424216,46.65024185,3.758205414,162.0353699,0,-20.7433567,-0.919421852,-2.070956707,0
1536692176065307544,46.65024185,3.758205414,162.0353699,0,-20.62208748,-1.2395643,-2.10108757,0
1536692176114955928,46.65024185,3.758205414,162.0353699,0,-20.58163071,-1.33491981,-2.108558655,0
1536692176178574008,46.65024185,3.758205414,162.0353699,0,-20.46185684,-1.625841618,-2.099372387,0
1536692176220184504,46.65024185,3.758205414,162.0353699,0,-20.37615967,-1.800671339,-2.09508872,0
1536692176283929688,41.43468094,4.10949707,174.6919708,0,-20.29414749,-1.955852628,-2.106811523,0
1536692176345096856,41.43468094,4.10949707,174.6919708,0,-20.15306091,-2.224143982,-2.143464088,0
1536692176385350904,41.43468094,4.10949707,174.6919708,0,-20.06667137,-2.370178461,-2.163449049,0
1536692176433453336,41.43468094,4.10949707,174.6919708,0,-19.89242554,-2.658410311,-2.179940224,0
1536692176452088920,41.43468094,4.10949707,174.6919708,0,-19.80325699,-2.782806635,-2.177181482,0
1536692176509649336,41.43468094,4.10949707,174.6919708,0,-19.63593483,-2.982673168,-2.109159231,0
1536692176565265336,41.43468094,4.10949707,174.6919708,0,-19.59428024,-3.023099899,-2.081776857,0
1536692176611688632,41.43468094,4.10949707,174.6919708,0,-19.39480209,-3.227960348,-1.987071395,0
1536692176634022840,41.43468094,4.10949707,174.6919708,0,-19.26870728,-3.330261469,-1.934630275,0
