%time,Roll,Pitch,Yaw,Airspeed,VelocityX,VelocityY,VelocityZ,Anomaly
1536691595360849112,6.193175793,-0.930810094,-58.97834015,0,7.785476685,-15.60736179,0.179058671,0
1536691595381401720,6.193175793,-0.930810094,-58.97834015,0,7.882690907,-15.53753376,0.223500669,0
1536691595475854520,20.79415512,-1.752197742,-57.31606674,0,8.07527256,-15.39144421,0.303207397,0
1536691595513163160,20.79415512,-1.752197742,-57.31606674,0,8.184878349,-15.31682491,0.354108065,0
1536691595543628152,20.79415512,-1.752197742,-57.31606674,0,8.235675812,-15.27831936,0.377761364,0
1536691595565795672,20.79415512,-1.752197742,-57.31606674,0,8.362645149,-15.19672298,0.408494622,0
1536691595630688440,20.79415512,-1.752197742,-57.31606674,0,8.552700043,-15.06842995,0.434740454,0
1536691595666146328,20.79415512,-1.752197742,-57.31606674,0,8.685310364,-14.97375011,0.449264318,0
1536691595730396152,20.79415512,-1.752197742,-57.31606674,0,8.817023277,-14.89008427,0.473639816,0
1536691595763395288,20.79415512,-1.752197742,-57.31606674,0,8.942378044,-14.80623341,0.512274563,0
1536691595792155064,20.79415512,-1.752197742,-57.31606674,0,9.084709167,-14.7170372,0.549913228,0
1536691595867758680,28.41040993,-2.18218565,-55.17303085,0,9.332530975,-14.54714108,0.63276273,0
1536691595884138680,28.41040993,-2.18218565,-55.17303085,0,9.452523232,-14.46823502,0.678975761,0
1536691595961219800,28.41040993,-2.18218565,-55.17303085,0,9.688254356,-14.29790783,0.772461176,0
1536691596006421272,28.41040993,-2.18218565,-55.17303085,0,9.893472672,-14.13622952,0.903950512,0
1536691596068603256,28.41040993,-2.18218565,-55.17303085,0,9.951609612,-14.09178257,0.941377819,0
1536691596088541048,28.41040993,-2.18218565,-55.17303085,0,10.14282703,-13.93220901,1.087033153,0
1536691596174882648,28.41040993,-2.18218565,-55.17303085,0,10.19616699,-13.88794518,1.116994739,0
1536691596184244664,28.41040993,-2.18218565,-55.17303085,0,10.3721714,-13.73230743,1.279121876,0
1536691596275602072,28.41040993,-2.18218565,-55.17303085,0,10.45321941,-13.65503407,1.349307537,0
1536691596287241464,28.41040993,-2.18218565,-55.17303085,0,10.60554791,-13.49960995,1.501703739,0
1536691596370421784,24.1258316,-5.292842865,-49.67559052,0,10.70327854,-13.39610577,1.64791584,0
1536691596404935640,24.1258316,-5.292842865,-49.67559052,0,10.75566578,-13.3281498,1.74610126,0
1536691596443160024,24.1258316,-5.292842865,-49.67559052,0,10.84992313,-13.2260704,1.906683087,0
1536691596485639128,24.1258316,-5.292842865,-49.67559052,0,10.89489746,-13.16370201,2.001593351,0
1536691596550822584,24.1258316,-5.292842865,-49.67559052,0,10.95692444,-13.09551239,2.114150286,0
1536691596584094360,24.1258316,-5.292842865,-49.67559052,0,11.02475929,-13.00905037,2.287968636,0
1536691596647935064,24.1258316,-5.292842865,-49.67559052,0,11.04404163,-12.98030853,2.348286867,0
1536691596667109880,19.00555229,-8.436775208,-46.0239296,0,11.10624981,-12.90087032,2.519541502,0
1536691596723737976,19.00555229,-8.436775208,-46.0239296,0,11.16252708,-12.81869507,2.678682804,0
1536691596759670552,19.00555229,-8.436775208,-46.0239296,0,11.23297787,-12.73226261,2.837663412,0
1536691596826714904,19.00555229,-8.436775208,-46.0239296,0,11.26096344,-12.68284607,2.949827194,0
1536691596861713400,19.00555229,-8.436775208,-46.0239296,0,11.29434395,-12.61973476,3.136824608,0
1536691596938286808,19.00555229,-8.436775208,-46.0239296,0,11.31723022,-12.58995342,3.205006599,0
1536691596998188792,19.00555229,-8.436775208,-46.0239296,0,11.38114738,-12.48612976,3.457427025,0
1536691597012780312,19.00555229,-8.436775208,-46.0239296,0,11.38936615,-12.46572304,3.527313471,0
1536691597081529336,13.83546448,-12.78331757,-42.66008377,0,11.41732502,-12.40927029,3.729812622,0
1536691597115059416,13.83546448,-12.78331757,-42.66008377,0,11.44812107,-12.35633564,3.909393311,0
1536691597159043352,13.83546448,-12.78331757,-42.66008377,0,11.47715759,-12.30776978,4.089335918,0
1536691597221687992,13.83546448,-12.78331757,-42.66008377,0,11.48984623,-12.29085636,4.14702034,0
1536691597286476088,13.83546448,-12.78331757,-42.66008377,0,11.51263618,-12.2480011,4.344126701,0
1536691597319280504,13.83546448,-12.78331757,-42.66008377,0,11.52605629,-12.21760273,4.491914749,0
1536691597379198168,13.83546448,-12.78331757,-42.66008377,0,11.55127811,-12.17744827,4.708478928,0
1536691597409828888,10.68664265,-15.72579861,-41.94359589,0,11.57779789,-12.14898872,4.82473135,0
1536691597475358328,10.68664265,-15.72579861,-41.94359589,0,11.61017895,-12.11906528,4.918752193,0
1536691597509200024,10.68664265,-15.72579861,-41.94359589,0,11.66268158,-12.08706474,5.052038193,0
1536691597552120632,10.68664265,-15.72579861,-41.94359589,0,11.68994045,-12.0783968,5.137244225,0
1536691597602027960,10.68664265,-15.72579861,-41.94359589,0,11.71077347,-12.08032894,5.213638306,0
1536691597653843352,10.68664265,-15.72579861,-41.94359589,0,11.74105263,-12.09601307,5.30713892,0
1536691597675285752,10.68664265,-15.72579861,-41.94359589,0,11.77346706,-12.10126305,5.417233467,0
1536691597750266648,10.68664265,-15.72579861,-41.94359589,0,11.78733635,-12.09588814,5.596508503,0
1536691597802416696,5.888244629,-18.89685059,-41.78718567,0,11.77995968,-12.1035347,5.738546371,0
1536691597844622008,5.888244629,-18.89685059,-41.78718567,0,11.78001118,-12.12888336,5.921188831,0
1536691597918151928,5.888244629,-18.89685059,-41.78718567,0,11.79611206,-12.13954258,6.008599758,0
1536691597971662808,5.888244629,-18.89685059,-41.78718567,0,11.81254482,-12.15405273,6.098015785,0
1536691598013327960,5.888244629,-18.89685059,-41.78718567,0,11.83518314,-12.22200108,6.329547882,0
1536691598042404984,5.888244629,-18.89685059,-41.78718567,0,11.85445881,-12.24607658,6.408989906,0
1536691598126329208,5.888244629,-18.89685059,-41.78718567,0,11.86771202,-12.29305363,6.544953346,0
1536691598187813336,1.251852632,-21.66061211,-40.74476242,0,11.88445377,-12.33977509,6.670114517,0
1536691598198179192,1.251852632,-21.66061211,-40.74476242,0,11.89452553,-12.35138226,6.712150574,0
1536691598246109624,1.251852632,-21.66061211,-40.74476242,0,11.91083813,-12.37767315,6.804217815,0
1536691598290228504,1.251852632,-21.66061211,-40.74476242,0,11.9359293,-12.44305611,6.984204769,0
1536691598344648952,1.251852632,-21.66061211,-40.74476242,0,11.96100426,-12.46739197,7.061953545,0
1536691598378061880,1.251852632,-21.66061211,-40.74476242,0,11.97102451,-12.47759628,7.10353756,0
1536691598421614712,1.251852632,-21.66061211,-40.74476242,0,11.99257469,-12.52245331,7.245014668,0
1536691598484689112,1.251852632,-21.66061211,-40.74476242,0,12.01954556,-12.54382896,7.316875458,0
1536691598521434456,1.251852632,-21.66061211,-40.74476242,0,12.07944679,-12.61735439,7.503793716,0
1536691598569698808,1.251852632,-21.66061211,-40.74476242,0,12.15701962,-12.67545891,7.594426632,0
1536691598603685112,0.02098757,-23.38151932,-39.71207047,0,12.18981743,-12.71039295,7.640084267,0
1536691598683882104,0.02098757,-23.38151932,-39.71207047,0,12.22144985,-12.75413895,7.677625656,0
1536691598741500120,0.02098757,-23.38151932,-39.71207047,0,12.28499222,-12.79783344,7.71628809,0
1536691598794528600,0.02098757,-23.38151932,-39.71207047,0,12.36118889,-12.86299801,7.775585175,0
1536691598829748536,0.02098757,-23.38151932,-39.71207047,0,12.42222595,-12.95678616,7.799400806,0
1536691598877081336,0.02098757,-23.38151932,-39.71207047,0,12.44162178,-12.98294163,7.792746067,0
1536691598928152056,0.02098757,-23.38151932,-39.71207047,0,12.47882462,-13.03792953,7.77644825,0
1536691599018808792,0.02098757,-23.38151932,-39.71207047,0,12.57038879,-13.11517906,7.715992928,0
1536691599086125240,2.383369207,-23.12683868,-41.34515762,0,12.63800049,-13.2186842,7.617754936,0
1536691599114930328,2.383369207,-23.12683868,-41.34515762,0,12.69859028,-13.29889584,7.520750046,0
1536691599154503448,2.383369207,-23.12683868,-41.34515762,0,12.73327065,-13.33177662,7.467094421,0
1536691599180361816,2.383369207,-23.12683868,-41.34515762,0,12.78934765,-13.42006874,7.340971947,0
1536691599261684664,2.383369207,-23.12683868,-41.34515762,0,12.8627224,-13.49698448,7.217765331,0
1536691599329530552,2.383369207,-23.12683868,-41.34515762,0,13.0160284,-13.70213032,6.866065979,0
1536691599351443128,2.383369207,-23.12683868,-41.34515762,0,13.11113262,-13.82615757,6.642630577,0
1536691599378840344,0.650043964,-20.48263168,-41.09395218,0,13.18512726,-13.91201591,6.454084873,0
1536691599414310072,0.650043964,-20.48263168,-41.09395218,0,13.31060028,-14.04031086,6.127436638,0
1536691599522444088,0.650043964,-20.48263168,-41.09395218,0,13.38736343,-14.11528397,5.910475731,0
1536691599585148600,0.650043964,-20.48263168,-41.09395218,0,13.50970078,-14.23029995,5.564043999,0
1536691599610250552,0.650043964,-20.48263168,-41.09395218,0,13.59900093,-14.3081522,5.308859825,0
1536691599687507768,0.650043964,-20.48263168,-41.09395218,0,13.79711628,-14.49255466,4.625230789,0
1536691599713554808,0.650043964,-20.48263168,-41.09395218,0,13.96248436,-14.66588211,3.896188974,0
1536691599769265208,0.584765494,-14.71019936,-39.87823868,0,14.10302544,-14.81746578,3.088827372,0
1536691599808985176,0.584765494,-14.71019936,-39.87823868,0,14.17170048,-14.93983746,2.462720871,0
1536691599913096152,0.584765494,-14.71019936,-39.87823868,0,14.19166851,-14.99672699,2.159614563,0
1536691600005602168,0.584765494,-14.71019936,-39.87823868,0,14.21178627,-15.08113956,1.69284153,0
1536691600083966520,0.584765494,-14.71019936,-39.87823868,0,14.21716213,-15.10558987,1.545630217,0
1536691600144209656,0.584765494,-14.71019936,-39.87823868,0,14.20012283,-15.18329525,1.082918763,0
1536691600182471512,1.079918742,-7.758097649,-41.14395142,0,14.19440174,-15.20522308,0.943114758,0
1536691600224686040,1.079918742,-7.758097649,-41.14395142,0,14.17909336,-15.26801586,0.503395617,0
1536691600273302232,1.079918742,-7.758097649,-41.14395142,0,14.16219807,-15.31387043,0.242686078,0
1536691600314119416,1.079918742,-7.758097649,-41.14395142,0,14.06221771,-15.39745331,-0.56600368,0
1536691600360492792,1.079918742,-7.758097649,-41.14395142,0,13.98805809,-15.42873192,-0.964923859,0
1536691600398870488,1.079918742,-7.758097649,-41.14395142,0,13.95661926,-15.4355526,-1.22736752,0
1536691600452519864,1.079918742,-7.758097649,-41.14395142,0,13.91672707,-15.44685078,-1.462617636,0
1536691600498742616,1.079918742,-7.758097649,-41.14395142,0,13.85087204,-15.45240879,-1.69732666,0
1536691600606918296,1.079918742,-7.758097649,-41.14395142,0,13.77090645,-15.44371033,-2.087250948,0
1536691600697035832,1.079918742,-7.758097649,-41.14395142,0,13.74597931,-15.43850899,-2.164364576,0
1536691600718815608,-1.150201082,1.332451344,-41.65542603,0,13.68504429,-15.42217922,-2.327771664,0
1536691600760403224,-1.150201082,1.332451344,-41.65542603,0,13.64491177,-15.39730644,-2.497742176,0
1536691600797344600,-1.150201082,1.332451344,-41.65542603,0,13.5327034,-15.34047985,-2.772043228,0
1536691600850223256,-1.150201082,1.332451344,-41.65542603,0,13.48924351,-15.30289745,-2.91006732,0
1536691600889598712,-1.150201082,1.332451344,-41.65542603,0,13.38744164,-15.22062778,-3.164743662,0
1536691600931781752,-1.150201082,1.332451344,-41.65542603,0,13.29057693,-15.14607906,-3.345448732,0
1536691600979909464,-1.150201082,1.332451344,-41.65542603,0,13.21797085,-15.06405926,-3.516834974,0
1536691601058951800,-0.009326196,4.738350868,-41.82542419,0,13.19199848,-15.03891945,-3.564770222,0
1536691601084250232,-0.009326196,4.738350868,-41.82542419,0,13.0962944,-14.95050812,-3.70954752,0
1536691601176261528,-0.009326196,4.738350868,-41.82542419,0,13.03862095,-14.8945179,-3.792359352,0
1536691601203537720,-0.009326196,4.738350868,-41.82542419,0,12.95527363,-14.80211258,-3.884093285,0
1536691601275973752,-0.009326196,4.738350868,-41.82542419,0,12.83939552,-14.63921261,-3.958315134,0
1536691601311970680,-0.009326196,4.738350868,-41.82542419,0,12.79145241,-14.57487774,-3.971697569,0
1536691601368563800,-0.009326196,4.738350868,-41.82542419,0,12.70295906,-14.43626404,-3.97582221,0
1536691601416716024,-0.009326196,4.738350868,-41.82542419,0,12.66218376,-14.3640728,-3.973387003,0
1536691601479077336,3.614249706,8.042504311,-42.66372299,0,12.62167072,-14.28530979,-3.96869874,0
1536691601540376632,3.614249706,8.042504311,-42.66372299,0,12.59029484,-14.20386791,-3.957796097,0
1536691601588228568,3.614249706,8.042504311,-42.66372299,0,12.5527029,-14.1264534,-3.936920881,0
1536691601612440888,3.614249706,8.042504311,-42.66372299,0,12.4936142,-14.01294899,-3.91298914,0
1536691601684942360,3.614249706,8.042504311,-42.66372299,0,12.43727398,-13.90060616,-3.877751589,0
1536691601727216440,3.614249706,8.042504311,-42.66372299,0,12.40414715,-13.82620525,-3.844953775,0
1536691601761997880,3.614249706,8.042504311,-42.66372299,0,12.365242,-13.71203423,-3.777749062,0
1536691601816847224,3.614249706,8.042504311,-42.66372299,0,12.3343401,-13.64362335,-3.711410522,0
1536691601846548216,6.410766602,8.936202049,-41.89057159,0,12.28670311,-13.50476265,-3.582379341,0
1536691601879447416,6.410766602,8.936202049,-41.89057159,0,12.23211002,-13.37554359,-3.446615696,0
1536691601951614520,6.410766602,8.936202049,-41.89057159,0,12.2155714,-13.30437374,-3.381822824,0
1536691602014134328,6.410766602,8.936202049,-41.89057159,0,12.19506454,-13.23474503,-3.320294619,0
1536691602076861912,6.410766602,8.936202049,-41.89057159,0,12.17134762,-13.17255116,-3.252405167,0
1536691602105489464,6.410766602,8.936202049,-41.89057159,0,12.16106606,-13.14401913,-3.216498852,0
1536691602161836024,6.410766602,8.936202049,-41.89057159,0,12.13751221,-13.0396595,-3.121747494,0
1536691602224149496,6.410766602,8.936202049,-41.89057159,0,12.10915756,-12.98083782,-3.061178207,0
1536691602279107544,8.248663902,8.186751366,-41.15026855,0,12.07207108,-12.85050011,-2.919672251,0
1536691602317385112,8.248663902,8.186751366,-41.15026855,0,12.04626465,-12.76648617,-2.795788527,0
1536691602342742680,8.248663902,8.186751366,-41.15026855,0,12.01369762,-12.69413185,-2.680173397,0
1536691602383486616,8.248663902,8.186751366,-41.15026855,0,11.98129368,-12.60871696,-2.573163509,0
1536691602421596824,8.248663902,8.186751366,-41.15026855,0,11.97095108,-12.58859921,-2.534514189,0
1536691602463470648,8.248663902,8.186751366,-41.15026855,0,11.9395647,-12.51320457,-2.425799131,0
1536691602519012920,8.248663902,8.186751366,-41.15026855,0,11.92115116,-12.46507168,-2.347640753,0
1536691602561369688,8.248663902,8.186751366,-41.15026855,0,11.86960697,-12.3615818,-2.112740755,0
1536691602595699512,8.248663902,8.186751366,-41.15026855,0,11.84247398,-12.29578686,-1.980382919,0
1536691602640934520,8.248663902,8.186751366,-41.15026855,0,11.818923,-12.22966194,-1.861614227,0
1536691602691325560,7.336704731,6.421578884,-40.00388718,0,11.81088352,-12.18793964,-1.776355386,0
1536691602774863800,7.336704731,6.421578884,-40.00388718,0,11.79553795,-12.15376472,-1.677407384,0
1536691602793299416,7.336704731,6.421578884,-40.00388718,0,11.78220654,-12.1105957,-1.580764294,0
1536691602851595640,7.336704731,6.421578884,-40.00388718,0,11.76362991,-12.0583849,-1.427010417,0
1536691602881534616,7.336704731,6.421578884,-40.00388718,0,11.7600708,-12.022439,-1.319485903,0
1536691602985635096,7.336704731,6.421578884,-40.00388718,0,11.74821281,-11.97100163,-1.175314426,0
1536691603039888952,7.336704731,6.421578884,-40.00388718,0,11.74129581,-11.94072819,-1.069773674,0
1536691603115911544,7.336704731,6.421578884,-40.00388718,0,11.73425674,-11.89161682,-0.930711567,0
1536691603149746296,6.817629814,3.80008626,-39.1350975,0,11.72814941,-11.86109066,-0.82907486,0
1536691603182626616,6.817629814,3.80008626,-39.1350975,0,11.73040104,-11.82020283,-0.671643913,0
1536691603229741976,6.817629814,3.80008626,-39.1350975,0,11.72728634,-11.78952026,-0.56529206,0
1536691603290703800,6.817629814,3.80008626,-39.1350975,0,11.73069286,-11.76324463,-0.462309986,0
1536691603310536504,6.817629814,3.80008626,-39.1350975,0,11.73135376,-11.73042393,-0.295750976,0
1536691603369564056,6.817629814,3.80008626,-39.1350975,0,11.73961926,-11.70581913,-0.195840508,0
1536691603403314392,6.817629814,3.80008626,-39.1350975,0,11.7434063,-11.68843746,-0.110598423,0
1536691603471043448,6.817629814,3.80008626,-39.1350975,0,11.75088787,-11.64688683,0.008481586,0
1536691603530973496,6.760210991,1.261649013,-38.28993225,0,11.75411701,-11.64183235,0.041786145,0
1536691603589464312,6.760210991,1.261649013,-38.28993225,0,11.77458858,-11.60412121,0.0911166,0
1536691603642947896,6.760210991,1.261649013,-38.28993225,0,11.7892561,-11.58930206,0.107800625,0
1536691603663628984,6.760210991,1.261649013,-38.28993225,0,11.7976656,-11.57149029,0.130307809,0
1536691603714877208,6.760210991,1.261649013,-38.28993225,0,11.83269215,-11.5307312,0.170817941,0
1536691603762232120,6.760210991,1.261649013,-38.28993225,0,11.83661938,-11.52240467,0.195578769,0
1536691603804641976,6.760210991,1.261649013,-38.28993225,0,11.86783791,-11.49335194,0.278430164,0
1536691603896959672,6.546602726,-0.978819489,-37.63550949,0,11.88920879,-11.46663094,0.321410865,0
1536691603915959576,6.546602726,-0.978819489,-37.63550949,0,11.9253397,-11.42955685,0.403854132,0
1536691603963545624,6.546602726,-0.978819489,-37.63550949,0,11.96773624,-11.39114475,0.489333391,0
1536691604015213272,6.546602726,-0.978819489,-37.63550949,0,11.99549198,-11.36598015,0.545600712,0
1536691604033933976,6.546602726,-0.978819489,-37.63550949,0,12.05718803,-11.31889629,0.626147211,0
1536691604062584376,6.546602726,-0.978819489,-37.63550949,0,12.11315441,-11.27575302,0.664229512,0
1536691604121613176,6.546602726,-0.978819489,-37.63550949,0,12.16641045,-11.23375225,0.707990646,0
1536691604173513560,6.546602726,-0.978819489,-37.63550949,0,12.2334528,-11.17585468,0.764950156,0
1536691604228599768,6.546602726,-0.978819489,-37.63550949,0,12.28976154,-11.13629246,0.825822592,0
1536691604279371992,6.642341137,-2.827419996,-36.46198654,0,12.33258438,-11.1067667,0.865195036,0
1536691604336727640,6.642341137,-2.827419996,-36.46198654,0,12.39183331,-11.06330585,0.918599963,0
1536691604398865080,6.642341137,-2.827419996,-36.46198654,0,12.45943642,-11.01298714,0.948293865,0
1536691604434415096,6.642341137,-2.827419996,-36.46198654,0,12.50465298,-10.97500706,0.968716145,0
1536691604481111064,6.642341137,-2.827419996,-36.46198654,0,12.55626297,-10.93455505,0.987655342,0
1536691604537521304,6.642341137,-2.827419996,-36.46198654,0,12.63543415,-10.87123394,1.040508151,0
1536691604569161720,9.605589867,-3.435521126,-36.26981735,0,12.7213459,-10.79920387,1.101261854,0
1536691604635427736,9.605589867,-3.435521126,-36.26981735,0,12.80996609,-10.72257042,1.168234944,0
1536691604715136216,9.605589867,-3.435521126,-36.26981735,0,12.83938217,-10.69445229,1.185209155,0
1536691604759154936,9.605589867,-3.435521126,-36.26981735,0,12.96126938,-10.57698727,1.265759945,0
1536691604805533624,9.605589867,-3.435521126,-36.26981735,0,12.99223614,-10.55223274,1.290657759,0
1536691604872567672,9.605589867,-3.435521126,-36.26981735,0,13.13965321,-10.41319656,1.344109774,0
1536691604939552856,9.605589867,-3.435521126,-36.26981735,0,13.18172455,-10.37162781,1.353170395,0
1536691604976885496,12.07724571,-4.026507378,-35.30342484,0,13.37915611,-10.16966248,1.377381682,0
1536691605002078264,12.07724571,-4.026507378,-35.30342484,0,13.56475067,-9.974525452,1.405446291,0
1536691605061194968,12.07724571,-4.026507378,-35.30342484,0,13.61248493,-9.917642593,1.417172194,0
1536691605139662040,12.07724571,-4.026507378,-35.30342484,0,13.80959225,-9.688106537,1.461227655,0
1536691605189915032,12.07724571,-4.026507378,-35.30342484,0,13.86003208,-9.628332138,1.471895814,0
1536691605196974744,12.07724571,-4.026507378,-35.30342484,0,14.09558105,-9.33844471,1.493079305,0
1536691605264157368,12.07724571,-4.026507378,-35.30342484,0,14.15252399,-9.264778137,1.50156641,0
1536691605330058008,12.07724571,-4.026507378,-35.30342484,0,14.27498531,-9.110091209,1.510758758,0
1536691605387749336,16.77523232,-4.541521072,-32.93081284,0,14.46779823,-8.848679543,1.528312564,0
1536691605422782680,16.77523232,-4.541521072,-32.93081284,0,14.72603226,-8.491398811,1.544185638,0
1536691605507199032,16.77523232,-4.541521072,-32.93081284,0,14.99990177,-8.087724686,1.57147491,0
1536691605590454456,16.77523232,-4.541521072,-32.93081284,0,15.06116962,-7.990260601,1.577303767,0
1536691605603918616,16.77523232,-4.541521072,-32.93081284,0,15.19673824,-7.778565884,1.593753934,0
1536691605684707736,16.77523232,-4.541521072,-32.93081284,0,15.39202404,-7.472455502,1.612963796,0
1536691605710905528,16.77523232,-4.541521072,-32.93081284,0,15.45811749,-7.3652668,1.618363976,0
1536691605785828088,27.88529015,-4.378017426,-29.52563477,0,15.59829521,-7.138592243,1.632665396,0
1536691605811120440,27.88529015,-4.378017426,-29.52563477,0,15.73235416,-6.916372299,1.643579721,0
1536691605838771864,27.88529015,-4.378017426,-29.52563477,0,15.93425369,-6.57199049,1.654262185,0
1536691605922307448,27.88529015,-4.378017426,-29.52563477,0,16.00364304,-6.45181179,1.658193111,0
1536691605991508696,27.88529015,-4.378017426,-29.52563477,0,16.14985466,-6.191959381,1.66409564,0
1536691606072064728,27.88529015,-4.378017426,-29.52563477,0,16.27495766,-5.95439291,1.659158111,0
1536691606086597624,27.88529015,-4.378017426,-29.52563477,0,16.54795074,-5.430845261,1.654736638,0
1536691606135118200,27.88529015,-4.378017426,-29.52563477,0,16.73619843,-5.022232533,1.648413539,0
1536691606164498904,27.88529015,-4.378017426,-29.52563477,0,16.85905457,-4.748988152,1.648693681,0
1536691606218776728,37.69208145,-3.726974726,-22.74367523,0,17.11686707,-4.165782928,1.664884329,0
1536691606242698264,37.69208145,-3.726974726,-22.74367523,0,17.23419189,-3.841268778,1.627156019,0
1536691606286576696,37.69208145,-3.726974726,-22.74367523,0,17.36656952,-3.497654915,1.603384376,0
1536691606343205880,37.69208145,-3.726974726,-22.74367523,0,17.58432198,-2.815639973,1.51507926,0
1536691606363802872,37.69208145,-3.726974726,-22.74367523,0,17.63852882,-2.637705088,1.492948174,0
1536691606410565240,37.69208145,-3.726974726,-22.74367523,0,17.75282669,-2.284772873,1.453346848,0
1536691606443087736,37.69208145,-3.726974726,-22.74367523,0,17.90287209,-1.703586459,1.35700953,0
1536691606533236504,37.69208145,-3.726974726,-22.74367523,0,17.94807625,-1.534141421,1.335603118,0
1536691606586157592,37.69208145,-3.726974726,-22.74367523,0,18.07032013,-0.949097991,1.235471725,0
1536691606642435992,41.31598663,-3.664061308,-13.53358173,0,18.23978233,0.010838654,1.071656585,0
1536691606717276696,41.31598663,-3.664061308,-13.53358173,0,18.33222008,0.803897858,0.923737049,0
1536691606749954040,41.31598663,-3.664061308,-13.53358173,0,18.34947014,1.031318784,0.882739782,0
1536691606780934616,41.31598663,-3.664061308,-13.53358173,0,18.38208771,1.406224132,0.813632548,0
1536691606871625656,41.31598663,-3.664061308,-13.53358173,0,18.41483498,2.223532438,0.650370121,0
1536691606884572216,41.31598663,-3.664061308,-13.53358173,0,18.42675018,2.440123796,0.61538595,0
1536691606941549240,41.31598663,-3.664061308,-13.53358173,0,18.418993,3.232462883,0.473878652,0
1536691606997195928,41.31598663,-3.664061308,-13.53358173,0,18.40548325,3.434060574,0.431228757,0
1536691607016760856,41.31598663,-3.664061308,-13.53358173,0,18.38707733,3.848731279,0.358149171,0
1536691607082002520,43.27481461,-2.480090857,-2.031045437,0,18.3416996,4.447014809,0.256866068,0
1536691607165739032,43.27481461,-2.480090857,-2.031045437,0,18.27295303,5.045553684,0.145473897,0
1536691607253098680,43.27481461,-2.480090857,-2.031045437,0,18.1751442,5.684754848,0.006759095,0
1536691607275989688,43.27481461,-2.480090857,-2.031045437,0,18.06047058,6.317737579,-0.164075077,0
1536691607308270744,43.27481461,-2.480090857,-2.031045437,0,17.92645645,6.961078644,-0.340691924,0
1536691607363185016,43.27481461,-2.480090857,-2.031045437,0,17.75726891,7.566568375,-0.499124169,0
1536691607423487672,44.25700378,-0.68479687,6.946490288,0,17.61522102,8.005860329,-0.620449901,0
1536691607486564312,44.25700378,-0.68479687,6.946490288,0,17.34113884,8.794839859,-0.834266841,0
1536691607510955032,44.25700378,-0.68479687,6.946490288,0,17.25602913,9.002698898,-0.891409099,0
1536691607549787736,44.25700378,-0.68479687,6.946490288,0,17.01613235,9.591983795,-1.041346431,0
1536691607605091224,44.25700378,-0.68479687,6.946490288,0,16.83909988,9.971175194,-1.144751072,0
1536691607661955448,44.25700378,-0.68479687,6.946490288,0,16.67585754,10.32432842,-1.22102654,0
1536691607740929688,44.25700378,-0.68479687,6.946490288,0,16.29271126,11.06377602,-1.396909714,0
1536691607765800600,44.25700378,-0.68479687,6.946490288,0,16.20090294,11.22839928,-1.44312191,0
1536691607804162168,44.25700378,-0.68479687,6.946490288,0,15.98645306,11.59442234,-1.550611734,0
1536691607847852344,44.25700378,-0.68479687,6.946490288,0,15.76772308,11.93125343,-1.643873334,0
1536691607878861176,44.73035049,1.769495964,20.07197571,0,15.57715225,12.23976135,-1.701627612,0
1536691607953151512,44.73035049,1.769495964,20.07197571,0,15.13766098,12.87287426,-1.818234801,0
1536691608036246136,44.73035049,1.769495964,20.07197571,0,15.04513931,13.02444172,-1.842827797,0
1536691608054094776,44.73035049,1.769495964,20.07197571,0,14.68759727,13.47695541,-1.927814841,0
1536691608101437912,44.73035049,1.769495964,20.07197571,0,14.44673443,13.75784016,-1.961706877,0
1536691608145028728,44.73035049,1.769495964,20.07197571,0,14.13427544,14.13872814,-1.95548141,0
1536691608191031800,44.73035049,1.769495964,20.07197571,0,14.02187347,14.27515888,-1.936458468,0
1536691608259969464,44.73035049,1.769495964,20.07197571,0,13.4889164,14.87406731,-1.849341869,0
1536691608309043128,44.72511292,3.755299807,31.36817932,0,13.11492634,15.26361084,-1.826054335,0
1536691608349296056,44.72511292,3.755299807,31.36817932,0,12.8304081,15.52951336,-1.826831222,0
1536691608376791864,44.72511292,3.755299807,31.36817932,0,12.33598137,15.99711132,-1.766173482,0
1536691608419465848,44.72511292,3.755299807,31.36817932,0,12.10066319,16.190588,-1.716787815,0
1536691608487022840,44.72511292,3.755299807,31.36817932,0,11.73711014,16.50627708,-1.636701226,0
1536691608512134296,44.72511292,3.755299807,31.36817932,0,11.60057449,16.60363579,-1.634549379,0
1536691608565124664,44.72511292,3.755299807,31.36817932,0,11.19390297,16.92600441,-1.584233761,0
1536691608617699736,45.96223831,4.187889576,39.07678604,0,10.76785088,17.24226379,-1.54686141,0
1536691608658403608,45.96223831,4.187889576,39.07678604,0,10.31772232,17.55303192,-1.539046288,0
1536691608697720472,45.96223831,4.187889576,39.07678604,0,10.01808357,17.73213577,-1.536136866,0
1536691608794342584,45.96223831,4.187889576,39.07678604,0,9.862851143,17.82734108,-1.528530478,0
1536691608843180760,45.96223831,4.187889576,39.07678604,0,9.551793098,18.02697372,-1.50704813,0
1536691608887440312,45.96223831,4.187889576,39.07678604,0,9.065732002,18.30284691,-1.497198462,0
1536691608945757272,45.96223831,4.187889576,39.07678604,0,8.767056465,18.4650898,-1.466095328,0
1536691609002446072,45.96223831,4.187889576,39.07678604,0,8.309277534,18.71727753,-1.412587762,0
1536691609074689688,45.96223831,4.187889576,39.07678604,0,7.987548351,18.86007881,-1.397713661,0
1536691609095688568,45.96223831,4.187889576,39.07678604,0,7.498210907,19.0971489,-1.360034943,0
1536691609153378744,45.96223831,4.187889576,39.07678604,0,7.156773567,19.23643303,-1.375406384,0
1536691609199750648,47.56406403,3.363506079,53.16531754,0,6.803388596,19.39676094,-1.381685972,0
1536691609268684184,47.56406403,3.363506079,53.16531754,0,6.048111439,19.67968369,-1.429438233,0
1536691609279727160,47.56406403,3.363506079,53.16531754,0,5.699790478,19.79495049,-1.43830514,0
1536691609341175800,47.56406403,3.363506079,53.16531754,0,5.34530592,19.90326691,-1.447707772,0
1536691609372504888,47.56406403,3.363506079,53.16531754,0,5.001496315,20.02075958,-1.449497938,0
1536691609408807416,47.56406403,3.363506079,53.16531754,0,4.495345116,20.1493187,-1.451970339,0
1536691609481892664,47.56406403,3.363506079,53.16531754,0,3.969233274,20.28500557,-1.441297054,0
1536691609528324152,47.85540771,3.15761447,61.10838318,0,3.641688347,20.35639,-1.423601031,0
1536691609565738616,47.85540771,3.15761447,61.10838318,0,3.280952454,20.41412354,-1.440475941,0
1536691609599477592,47.85540771,3.15761447,61.10838318,0,2.727004766,20.51683235,-1.454134107,0
1536691609672567448,47.85540771,3.15761447,61.10838318,0,2.037671804,20.60449028,-1.454458475,0
1536691609721648760,47.85540771,3.15761447,61.10838318,0,1.248725891,20.67319298,-1.359211802,0
1536691609768065112,47.85540771,3.15761447,61.10838318,0,0.921882391,20.70141983,-1.318933845,0
1536691609845914072,47.85540771,3.15761447,61.10838318,0,0.776224375,20.70978737,-1.301996827,0
1536691609880566008,47.85540771,3.15761447,61.10838318,0,0.297135681,20.72288895,-1.288723707,0
1536691609925127384,47.2648201,2.974417686,71.23760223,0,-0.025764614,20.71818161,-1.305597425,0
1536691609974823864,47.2648201,2.974417686,71.23760223,0,-0.522932589,20.69978523,-1.3382622,0
1536691610021037240,47.2648201,2.974417686,71.23760223,0,-0.830040514,20.68017006,-1.366207361,0
1536691610073621432,47.2648201,2.974417686,71.23760223,0,-1.160811186,20.65279579,-1.41557622,0
1536691610113499000,47.2648201,2.974417686,71.23760223,0,-1.466659904,20.61923981,-1.45859158,0
1536691610183511160,47.2648201,2.974417686,71.23760223,0,-1.908931017,20.56669044,-1.498643994,0
1536691610213994392,47.2648201,2.974417686,71.23760223,0,-2.321760416,20.50113106,-1.523818135,0
1536691610361139320,44.08425522,1.832247734,82.5802002,0,-2.965971947,20.37052345,-1.59041512,0
1536691610394286488,44.08425522,1.832247734,82.5802002,0,-3.340089321,20.28890419,-1.623790383,0
1536691610419542040,44.08425522,1.832247734,82.5802002,0,-3.545070648,20.23553658,-1.633728743,0
1536691610477188152,44.08425522,1.832247734,82.5802002,0,-3.855879545,20.14630318,-1.646154761,0
1536691610517930744,44.08425522,1.832247734,82.5802002,0,-4.036991119,20.08270454,-1.644939065,0
1536691610574841272,44.08425522,1.832247734,82.5802002,0,-4.30086422,19.99371719,-1.643800497,0
1536691610587337400,44.08425522,1.832247734,82.5802002,0,-4.380897522,19.95870209,-1.637626171,0
1536691610644775736,40.61172867,1.937435269,89.26907349,0,-4.528418541,19.89988518,-1.632657886,0
1536691610694005048,40.61172867,1.937435269,89.26907349,0,-4.8019557,19.77189446,-1.62929523,0
1536691610740190424,40.61172867,1.937435269,89.26907349,0,-4.977040291,19.68250656,-1.601950884,0
1536691610780277880,40.61172867,1.937435269,89.26907349,0,-5.129011154,19.59427071,-1.566128373,0
1536691610824257400,40.61172867,1.937435269,89.26907349,0,-5.217192173,19.53345871,-1.546269655,0
1536691610911783064,40.61172867,1.937435269,89.26907349,0,-5.30450058,19.47399521,-1.542056322,0
1536691610975915928,40.61172867,1.937435269,89.26907349,0,-5.410220623,19.39254379,-1.522387385,0
1536691611023781752,40.61172867,1.937435269,89.26907349,0,-5.472881317,19.33869171,-1.498234749,0
1536691611066906296,31.24520493,1.52203393,97.24329376,0,-5.530310631,19.26068115,-1.421473622,0
1536691611122738104,31.24520493,1.52203393,97.24329376,0,-5.562750816,19.21144867,-1.365389109,0
1536691611174037176,31.24520493,1.52203393,97.24329376,0,-5.595579624,19.14647293,-1.265008092,0
1536691611197356280,31.24520493,1.52203393,97.24329376,0,-5.631767273,19.05363655,-1.156034112,0
1536691611226879640,31.24520493,1.52203393,97.24329376,0,-5.642131805,19.01055908,-1.09276104,0
1536691611278475064,31.24520493,1.52203393,97.24329376,0,-5.642560005,18.99246979,-1.048626781,0
1536691611338191736,22.48457909,1.066253066,101.2326813,0,-5.642341614,18.93203163,-0.963864446,0
1536691611365568856,22.48457909,1.066253066,101.2326813,0,-5.634130955,18.89544868,-0.904630423,0
1536691611405974360,22.48457909,1.066253066,101.2326813,0,-5.583487034,18.81266403,-0.760436475,0
1536691611473958616,22.48457909,1.066253066,101.2326813,0,-5.547267437,18.76415634,-0.704141796,0
1536691611523900760,22.48457909,1.066253066,101.2326813,0,-5.493824959,18.725914,-0.643644154,0
1536691611562663544,22.48457909,1.066253066,101.2326813,0,-5.457488537,18.7010231,-0.606789351,0
1536691611586191448,22.48457909,1.066253066,101.2326813,0,-5.387424469,18.66148186,-0.559029579,0
1536691611678011896,22.48457909,1.066253066,101.2326813,0,-5.325645447,18.63407326,-0.491822034,0
1536691611716747640,11.13519859,0.425827622,104.8452606,0,-5.290902138,18.62269211,-0.45858109,0
1536691611776092184,11.13519859,0.425827622,104.8452606,0,-5.190656662,18.5937767,-0.335042804,0
1536691611851353112,11.13519859,0.425827622,104.8452606,0,-5.13693285,18.58036232,-0.271544546,0
1536691611900571576,11.13519859,0.425827622,104.8452606,0,-5.032398701,18.55593109,-0.183083266,0
1536691611920265624,11.13519859,0.425827622,104.8452606,0,-5.008850574,18.55375099,-0.1583464,0
1536691611973609976,11.13519859,0.425827622,104.8452606,0,-4.901864052,18.54337883,-0.066122927,0
1536691612000641208,11.13519859,0.425827622,104.8452606,0,-4.835644245,18.53919411,-0.018195385,0
1536691612118367544,11.13519859,0.425827622,104.8452606,0,-4.718286991,18.52283859,0.062563233,0
1536691612174252856,0.037926171,-0.571057677,106.8895187,0,-4.538648129,18.51511574,0.191764563,0
1536691612222317368,0.037926171,-0.571057677,106.8895187,0,-4.434177399,18.51190376,0.304874539,0
1536691612274022328,0.037926171,-0.571057677,106.8895187,0,-4.324405193,18.50930786,0.431939691,0
1536691612352893880,0.037926171,-0.571057677,106.8895187,0,-4.278245926,18.50579834,0.460402995,0
1536691612388553880,0.037926171,-0.571057677,106.8895187,0,-4.116120338,18.50554848,0.618788421,0
1536691612417781016,0.037926171,-0.571057677,106.8895187,0,-4.082509995,18.50952911,0.636534631,0
1536691612489737944,0.037926171,-0.571057677,106.8895187,0,-3.966276407,18.52066803,0.745000124,0
1536691612521398584,0.037926171,-0.571057677,106.8895187,0,-3.88335681,18.52411079,0.799841464,0
1536691612573591064,0.037926171,-0.571057677,106.8895187,0,-3.763491631,18.53434563,0.904122531,0
1536691612608636792,-7.893465042,-2.170392036,106.1839371,0,-3.547771931,18.54941368,1.049953222,0
1536691612667618232,-7.893465042,-2.170392036,106.1839371,0,-3.465000153,18.55940056,1.102343321,0
1536691612710474808,-7.893465042,-2.170392036,106.1839371,0,-3.332571983,18.57532692,1.151081562,0
1536691612763658264,-7.893465042,-2.170392036,106.1839371,0,-3.247880697,18.58579063,1.207145929,0
1536691612835057304,-7.893465042,-2.170392036,106.1839371,0,-3.131243467,18.60290718,1.272996187,0
1536691612904083192,-7.893465042,-2.170392036,106.1839371,0,-3.044605255,18.61437988,1.317633867,0
1536691612934944504,-7.893465042,-2.170392036,106.1839371,0,-2.955730438,18.62623978,1.361281872,0
1536691612969971256,-7.893465042,-2.170392036,106.1839371,0,-2.863828421,18.64180183,1.395562172,0
1536691613010905848,-7.893465042,-2.170392036,106.1839371,0,-2.737118006,18.665411,1.438596487,0
1536691613067300088,-11.31760883,-4.100792408,104.3131485,0,-2.689913988,18.6698513,1.465365052,0
1536691613106716920,-11.31760883,-4.100792408,104.3131485,0,-2.609189749,18.68869019,1.488870502,0
1536691613184664440,-11.31760883,-4.100792408,104.3131485,0,-2.426770687,18.72129822,1.525173664,0
1536691613205793528,-11.31760883,-4.100792408,104.3131485,0,-2.371140957,18.72829247,1.528575301,0
1536691613272804472,-11.31760883,-4.100792408,104.3131485,0,-2.191309214,18.75208092,1.559441924,0
1536691613368409048,-11.31760883,-4.100792408,104.3131485,0,-2.150095701,18.76535988,1.558441758,0
1536691613425052472,-13.1061554,-5.611130238,102.5905533,0,-2.004562855,18.78254509,1.569716096,0
1536691613476600280,-13.1061554,-5.611130238,102.5905533,0,-1.86407721,18.81062126,1.550982356,0
1536691613517020568,-13.1061554,-5.611130238,102.5905533,0,-1.713190556,18.82766533,1.540792108,0
1536691613552946488,-13.1061554,-5.611130238,102.5905533,0,-1.670015574,18.8375473,1.519959211,0
1536691613611956792,-13.1061554,-5.611130238,102.5905533,0,-1.463304043,18.87200165,1.488082767,0
1536691613645600632,-13.1061554,-5.611130238,102.5905533,0,-1.364467859,18.88462257,1.468123436,0
1536691613693366136,-13.47468758,-6.263440132,100.7825317,0,-1.212544918,18.89353371,1.426728368,0
1536691613727866968,-13.47468758,-6.263440132,100.7825317,0,-1.11519289,18.90401268,1.396326303,0
1536691613762243992,-13.47468758,-6.263440132,100.7825317,0,-0.975160182,18.91968155,1.394217134,0
1536691613807835992,-13.47468758,-6.263440132,100.7825317,0,-0.933387935,18.92248535,1.378812671,0
1536691613901195704,-13.47468758,-6.263440132,100.7825317,0,-0.845968068,18.92549515,1.369651914,0
1536691613922206072,-13.47468758,-6.263440132,100.7825317,0,-0.702959299,18.932724,1.326302052,0
1536691613993847000,-13.47468758,-6.263440132,100.7825317,0,-0.6153422,18.9406147,1.292223215,0
1536691614012696824,-13.47468758,-6.263440132,100.7825317,0,-0.532448828,18.9473629,1.269528508,0
1536691614062126456,-13.47468758,-6.263440132,100.7825317,0,-0.405670524,18.94729805,1.237250686,0
1536691614130817656,-12.91060734,-6.399832726,97.34667969,0,-0.329157203,18.94835472,1.201789618,0
1536691614155906936,-12.91060734,-6.399832726,97.34667969,0,-0.198240951,18.95106888,1.177563906,0
1536691614209760344,-12.91060734,-6.399832726,97.34667969,0,-0.133517146,18.95284081,1.178214788,0
1536691614293043352,-12.91060734,-6.399832726,97.34667969,0,-0.079719096,18.94956589,1.167099714,0
1536691614329790552,-12.91060734,-6.399832726,97.34667969,0,0.025230274,18.93453217,1.092162132,0
1536691614363317336,-12.91060734,-6.399832726,97.34667969,0,0.072640441,18.93299294,1.049800038,0
1536691614410109432,-12.91060734,-6.399832726,97.34667969,0,0.101221532,18.93113899,1.039178967,0
1536691614484638392,-12.91060734,-6.399832726,97.34667969,0,0.191295087,18.91542816,0.950396359,0
1536691614522580248,-12.91060734,-6.399832726,97.34667969,0,0.236097351,18.90811348,0.915667355,0
1536691614565988632,-12.91060734,-6.399832726,97.34667969,0,0.323753268,18.89115334,0.851640522,0
1536691614587839576,-10.75426769,-5.842724323,93.7147522,0,0.392563701,18.87067986,0.777366936,0
1536691614643127704,-10.75426769,-5.842724323,93.7147522,0,0.427656442,18.85912323,0.754968822,0
1536691614686480664,-10.75426769,-5.842724323,93.7147522,0,0.465110749,18.84926224,0.734507918,0
1536691614760578488,-10.75426769,-5.842724323,93.7147522,0,0.502795756,18.83522797,0.699102104,0
1536691614783226072,-10.75426769,-5.842724323,93.7147522,0,0.588269353,18.79667473,0.610711038,0
1536691614862104440,-10.75426769,-5.842724323,93.7147522,0,0.625187993,18.7775383,0.572898567,0
1536691614916323096,-10.75426769,-5.842724323,93.7147522,0,0.657217324,18.76565933,0.565708339,0
1536691614969117368,-10.75426769,-5.842724323,93.7147522,0,0.671096563,18.74568939,0.54722333,0
1536691615036050008,-7.413966179,-4.86339283,91.53338623,0,0.683789372,18.7331543,0.518835187,0
1536691615068434104,-7.413966179,-4.86339283,91.53338623,0,0.714983821,18.70928955,0.481348962,0
1536691615080445368,-7.413966179,-4.86339283,91.53338623,0,0.717762709,18.70166588,0.465225518,0
1536691615169905496,-7.413966179,-4.86339283,91.53338623,0,0.73821497,18.66776085,0.455791265,0
1536691615210275352,-7.413966179,-4.86339283,91.53338623,0,0.739130497,18.65321159,0.429999411,0
1536691615282447672,-7.413966179,-4.86339283,91.53338623,0,0.734531522,18.64297485,0.410813957,0
1536691615395225304,-7.413966179,-4.86339283,91.53338623,0,0.740985274,18.6323967,0.405128002,0
1536691615418884024,-7.413966179,-4.86339283,91.53338623,0,0.737166286,18.6156311,0.396383882,0
1536691615451660632,-7.413966179,-4.86339283,91.53338623,0,0.715438664,18.58434868,0.346935272,0
1536691615484703256,-2.762595654,-3.730705738,87.7983551,0,0.708890676,18.57712364,0.325543672,0
1536691615561654008,-2.762595654,-3.730705738,87.7983551,0,0.704601169,18.56970024,0.331384063,0
1536691615636567992,-2.762595654,-3.730705738,87.7983551,0,0.677209854,18.54989243,0.340304166,0
1536691615653455448,-2.762595654,-3.730705738,87.7983551,0,0.674832463,18.54123878,0.345235795,0
1536691615707547640,-2.762595654,-3.730705738,87.7983551,0,0.659296691,18.53277969,0.358280182,0
1536691615749446552,-2.762595654,-3.730705738,87.7983551,0,0.646816194,18.51913261,0.40362823,0
1536691615780068696,-2.762595654,-3.730705738,87.7983551,0,0.643128455,18.51752281,0.426325202,0
1536691615885277464,-2.762595654,-3.730705738,87.7983551,0,0.616155744,18.50263786,0.463870466,0
1536691615905437752,0.176426217,-2.992408514,86.64537811,0,0.591884196,18.49087334,0.482927412,0
1536691615966690168,0.176426217,-2.992408514,86.64537811,0,0.584129572,18.48524666,0.491001248,0
1536691615997077432,0.176426217,-2.992408514,86.64537811,0,0.57753098,18.48153877,0.483325332,0
1536691616042656056,0.176426217,-2.992408514,86.64537811,0,0.558932662,18.47793198,0.481222838,0
1536691616087676536,0.176426217,-2.992408514,86.64537811,0,0.552609742,18.47492599,0.469060063,0
1536691616135984760,0.176426217,-2.992408514,86.64537811,0,0.547349989,18.47204971,0.48164326,0
1536691616223209848,0.176426217,-2.992408514,86.64537811,0,0.544484794,18.46574402,0.47337085,0
1536691616275889912,0.176426217,-2.992408514,86.64537811,0,0.554396987,18.46758652,0.460698217,0
1536691616314499128,2.62198782,-2.960743666,86.87483215,0,0.563066304,18.46416092,0.450552225,0
1536691616353823704,2.62198782,-2.960743666,86.87483215,0,0.574174583,18.46162605,0.440199852,0
1536691616406284696,2.62198782,-2.960743666,86.87483215,0,0.580012858,18.4639473,0.420717984,0
1536691616440273048,2.62198782,-2.960743666,86.87483215,0,0.608695388,18.46247101,0.397285342,0
1536691616489331320,2.62198782,-2.960743666,86.87483215,0,0.613195777,18.46264267,0.399720937,0
1536691616512084536,2.62198782,-2.960743666,86.87483215,0,0.625566661,18.46029663,0.404394001,0
1536691616573993912,2.502628803,-3.09991765,87.19007874,0,0.634865105,18.45729828,0.388720274,0
1536691616597149720,2.502628803,-3.09991765,87.19007874,0,0.637310445,18.4573307,0.37190932,0
1536691616676321976,2.502628803,-3.09991765,87.19007874,0,0.645565748,18.45911598,0.361014396,0
1536691616706744216,2.502628803,-3.09991765,87.19007874,0,0.649741471,18.46125793,0.320973098,0
1536691616777117624,2.502628803,-3.09991765,87.19007874,0,0.65096873,18.45730782,0.276487768,0
1536691616814025496,2.502628803,-3.09991765,87.19007874,0,0.65448159,18.45497513,0.209849298,0
1536691616923122680,2.502628803,-3.09991765,87.19007874,0,0.651580453,18.45623398,0.199356437,0
1536691616991636248,1.83742094,-3.130007267,86.83779907,0,0.653210521,18.44832039,0.216960594,0
1536691617078966360,1.83742094,-3.130007267,86.83779907,0,0.655323863,18.44524384,0.22557199,0
1536691617122783864,1.83742094,-3.130007267,86.83779907,0,0.651164174,18.44464493,0.21650362,0
1536691617176522232,1.83742094,-3.130007267,86.83779907,0,0.646920979,18.44177818,0.205148414,0
1536691617213352600,1.83742094,-3.130007267,86.83779907,0,0.641347885,18.43577003,0.181085095,0
1536691617286047224,0.12774308,-2.820095539,86.64164734,0,0.640047669,18.44040298,0.170445159,0
1536691617336109752,0.12774308,-2.820095539,86.64164734,0,0.620298922,18.43642426,0.105215088,0
1536691617396168280,0.12774308,-2.820095539,86.64164734,0,0.618254542,18.43556595,0.086988248,0
1536691617534588152,0.12774308,-2.820095539,86.64164734,0,0.611057341,18.43561745,0.054153033,0
1536691617564798808,0.12774308,-2.820095539,86.64164734,0,0.605910897,18.4412365,0.034347247,0
1536691617614772728,0.12774308,-2.820095539,86.64164734,0,0.580917239,18.44327927,0.003921432,0
1536691617677882552,1.842487335,-2.494522572,86.25015259,0,0.578619897,18.44047165,0.005436652,0
1536691617714178776,1.842487335,-2.494522572,86.25015259,0,0.561883211,18.44499779,-0.006018661,0
1536691617801404824,1.842487335,-2.494522572,86.25015259,0,0.547603965,18.44561386,-0.030142955,0
1536691617822757816,1.842487335,-2.494522572,86.25015259,0,0.534086168,18.44453049,-0.050913088,0
1536691617867063288,1.842487335,-2.494522572,86.25015259,0,0.522002757,18.43952751,-0.069517925,0
1536691617909184344,1.842487335,-2.494522572,86.25015259,0,0.509447396,18.44184875,-0.068853945,0
1536691617995755256,2.321661949,-2.257842064,86.00016022,0,0.503944159,18.4408493,-0.058331601,0
1536691618047256440,2.321661949,-2.257842064,86.00016022,0,0.486319929,18.43752861,-0.059831526,0
1536691618093269176,2.321661949,-2.257842064,86.00016022,0,0.466531605,18.43617249,-0.053773452,0
1536691618124948280,2.321661949,-2.257842064,86.00016022,0,0.462529838,18.4379673,-0.043818891,0
1536691618187899832,2.321661949,-2.257842064,86.00016022,0,0.433344483,18.43830109,-0.025878154,0
1536691618240443864,2.321661949,-2.257842064,86.00016022,0,0.393216044,18.44358063,-0.014270527,0
1536691618279629912,2.907522678,-1.882881045,86.0526886,0,0.35748449,18.44480324,-0.009525214,0
1536691618326954136,2.907522678,-1.882881045,86.0526886,0,0.305803031,18.45101929,-0.003738956,0
1536691618367346712,2.907522678,-1.882881045,86.0526886,0,0.292925805,18.45290184,0.007351847,0
1536691618408151096,2.907522678,-1.882881045,86.0526886,0,0.223565906,18.46036911,0.043854948,0
1536691618511734072,2.907522678,-1.882881045,86.0526886,0,0.173830554,18.47030067,0.107024089,0
1536691618560642104,2.907522678,-1.882881045,86.0526886,0,0.101138368,18.48070526,0.249866039,0
1536691618634261816,2.907522678,-1.882881045,86.0526886,0,0.021462822,18.49046326,0.396025628,0
1536691618663452024,4.731692314,-1.425452709,85.63172913,0,-0.032172278,18.4996109,0.475112975,0
1536691618723300600,4.731692314,-1.425452709,85.63172913,0,-0.118296526,18.51422691,0.509997904,0
1536691618750658104,4.731692314,-1.425452709,85.63172913,0,-0.322801769,18.5508213,0.461625278,0
1536691618783959608,4.731692314,-1.425452709,85.63172913,0,-0.522886515,18.58424187,0.328807414,0
1536691618841440024,4.731692314,-1.425452709,85.63172913,0,-0.590955853,18.59477234,0.29083699,0
1536691618880188248,4.731692314,-1.425452709,85.63172913,0,-0.745292008,18.61382866,0.215568587,0
1536691618905085176,4.731692314,-1.425452709,85.63172913,0,-1.01970911,18.63793564,0.204993472,0
1536691618986751256,6.700570583,-1.376247168,86.19669342,0,-1.138062358,18.64723969,0.215482235,0
1536691619036778456,6.700570583,-1.376247168,86.19669342,0,-1.349126697,18.66598701,0.212692976,0
1536691619061532120,6.700570583,-1.376247168,86.19669342,0,-1.465569139,18.67699051,0.235976353,0
1536691619124382520,6.700570583,-1.376247168,86.19669342,0,-1.610594988,18.68574524,0.241201207,0
1536691619162792472,6.700570583,-1.376247168,86.19669342,0,-1.828889728,18.70199203,0.2427423,0
1536691619201243128,6.700570583,-1.376247168,86.19669342,0,-2.056004524,18.71274185,0.273390681,0
1536691619277330968,6.700570583,-1.376247168,86.19669342,0,-2.205052137,18.72024918,0.311795354,0
1536691619334541048,14.83033466,-1.912456393,88.15921783,0,-2.434926271,18.72398949,0.371505022,0
1536691619370654808,14.83033466,-1.912456393,88.15921783,0,-2.606369495,18.72303391,0.432768494,0
1536691619428874488,14.83033466,-1.912456393,88.15921783,0,-2.795300722,18.72019768,0.471050054,0
1536691619491575448,14.83033466,-1.912456393,88.15921783,0,-3.028217316,18.71179008,0.471654058,0
1536691619557514712,14.83033466,-1.912456393,88.15921783,0,-3.538199902,18.68117905,0.464142561,0
1536691619567931320,14.83033466,-1.912456393,88.15921783,0,-3.677630186,18.66972733,0.469103217,0
1536691619601936696,14.83033466,-1.912456393,88.15921783,0,-3.951332092,18.6521244,0.466865838,0
1536691619660621560,21.68556023,-2.635154009,91.38543701,0,-4.331120491,18.62797165,0.481572986,0
1536691619738219096,21.68556023,-2.635154009,91.38543701,0,-4.712165833,18.59191322,0.518579543,0
1536691619787176344,21.68556023,-2.635154009,91.38543701,0,-4.834376812,18.57525253,0.521502495,0
1536691619827140888,21.68556023,-2.635154009,91.38543701,0,-5.291789055,18.51776886,0.550705791,0
1536691619878641080,21.68556023,-2.635154009,91.38543701,0,-5.635812759,18.46574593,0.55694592,0
1536691619914110040,21.68556023,-2.635154009,91.38543701,0,-5.858894825,18.42923927,0.562834322,0
1536691619990005656,21.68556023,-2.635154009,91.38543701,0,-6.063703537,18.39365387,0.562142313,0
1536691620034185912,21.68556023,-2.635154009,91.38543701,0,-6.488317966,18.33010101,0.607707024,0
1536691620065800728,26.33516693,-3.182801962,95.917099,0,-6.81856823,18.27380371,0.638708234,0
1536691620110309016,26.33516693,-3.182801962,95.917099,0,-7.060281277,18.22793388,0.647513747,0
1536691620164934392,26.33516693,-3.182801962,95.917099,0,-7.304065704,18.17662811,0.652555108,0
1536691620203495480,26.33516693,-3.182801962,95.917099,0,-7.651103497,18.10883713,0.656371117,0
1536691620262465368,26.33516693,-3.182801962,95.917099,0,-8.039083481,18.02067757,0.677000642,0
1536691620316576504,26.33516693,-3.182801962,95.917099,0,-8.170804024,17.98877144,0.683604836,0
1536691620353232344,32.77791214,-3.071950912,99.77629089,0,-8.445633888,17.91668892,0.687858999,0
1536691620386343544,32.77791214,-3.071950912,99.77629089,0,-8.871319771,17.80520821,0.691634059,0
1536691620440695128,32.77791214,-3.071950912,99.77629089,0,-9.311649323,17.67311096,0.698971152,0
1536691620498309016,32.77791214,-3.071950912,99.77629089,0,-9.784696579,17.51747322,0.682214141,0
1536691620566711064,32.77791214,-3.071950912,99.77629089,0,-9.943555832,17.4597168,0.675014496,0
1536691620625184216,32.77791214,-3.071950912,99.77629089,0,-10.42172909,17.28974152,0.655748188,0
1536691620661757880,32.77791214,-3.071950912,99.77629089,0,-10.75632,17.15830803,0.653230786,0
1536691620713176696,32.77791214,-3.071950912,99.77629089,0,-11.2551384,16.94255829,0.613268375,0
1536691620763286360,32.77791214,-3.071950912,99.77629089,0,-11.60843658,16.77220535,0.555901349,0
1536691620833594776,37.46146011,-0.80973345,104.3846283,0,-12.3497963,16.40477371,0.392095178,0
1536691620840120344,37.46146011,-0.80973345,104.3846283,0,-12.54420185,16.30665398,0.345159262,0
1536691620887864216,37.46146011,-0.80973345,104.3846283,0,-13.25911808,15.92208385,0.1843521,0
1536691620924475864,37.46146011,-0.80973345,104.3846283,0,-13.59860802,15.71645641,0.116003215,0
1536691620987737432,37.46146011,-0.80973345,104.3846283,0,-13.91587925,15.54284573,0.085233279,0
1536691621015358552,37.46146011,-0.80973345,104.3846283,0,-14.29208755,15.31838512,0.098453514,0
1536691621073962712,37.46146011,-0.80973345,104.3846283,0,-14.55071735,15.14905167,0.092277065,0
1536691621111290392,37.46146011,-0.80973345,104.3846283,0,-14.8059473,14.99384212,0.096505955,0
1536691621170154264,40.80965805,-3.177902222,113.3233643,0,-15.18798637,14.73593521,0.059433397,0
1536691621233383032,40.80965805,-3.177902222,113.3233643,0,-15.46070004,14.53860188,0.03692909,0
1536691621282590904,40.80965805,-3.177902222,113.3233643,0,-15.70767212,14.35601521,0.01975688,0
1536691621322119096,40.80965805,-3.177902222,113.3233643,0,-16.05635643,14.05851078,0.015560634,0
1536691621365384024,40.80965805,-3.177902222,113.3233643,0,-16.27992821,13.87376976,0.032370824,0
1536691621411992792,40.80965805,-3.177902222,113.3233643,0,-16.40459633,13.7715683,0.035997957,0
1536691621477153528,40.80965805,-3.177902222,113.3233643,0,-16.73464012,13.45940781,0.03328985,0
1536691621512296952,43.97174835,-3.129155636,122.33284,0,-17.09407043,13.07428932,-0.013133618,0
1536691621591683608,43.97174835,-3.129155636,122.33284,0,-17.32777596,12.82540321,-0.037502702,0
1536691621604947704,43.97174835,-3.129155636,122.33284,0,-17.56315422,12.57624435,-0.064255066,0
1536691621664891192,43.97174835,-3.129155636,122.33284,0,-17.7883091,12.30402851,-0.108301096,0
1536691621716952472,43.97174835,-3.129155636,122.33284,0,-18.27681732,11.70189953,-0.24673149,0
1536691621772338232,43.97174835,-3.129155636,122.33284,0,-18.39148331,11.55337048,-0.285632759,0
1536691621830874072,43.97174835,-3.129155636,122.33284,0,-18.61129189,11.24185753,-0.382035106,0
1536691621874923384,43.84768295,-1.173377991,130.8886871,0,-18.94181061,10.75811863,-0.507459521,0
1536691621910871192,43.84768295,-1.173377991,130.8886871,0,-19.24153137,10.28880405,-0.623502135,0
1536691621943009656,43.84768295,-1.173377991,130.8886871,0,-19.4274025,9.954385757,-0.714120686,0
1536691621987598136,43.84768295,-1.173377991,130.8886871,0,-19.62186623,9.625710487,-0.775998831,0
1536691622041004632,43.84768295,-1.173377991,130.8886871,0,-19.79051018,9.321631432,-0.810097456,0
1536691622117285688,43.84768295,-1.173377991,130.8886871,0,-19.94207382,9.010407448,-0.865413427,0
1536691622152576472,43.84768295,-1.173377991,130.8886871,0,-20.17902565,8.542881012,-0.885469019,0
1536691622174570648,43.84768295,-1.173377991,130.8886871,0,-20.31343269,8.270618439,-0.862574041,0
1536691622205602232,43.84768295,-1.173377991,130.8886871,0,-20.43796158,7.979066849,-0.853115141,0
1536691622293432152,42.88711166,-1.338905811,140.9938812,0,-20.57814407,7.664328575,-0.847116411,0
1536691622303296888,42.88711166,-1.338905811,140.9938812,0,-20.70742607,7.35327673,-0.861006439,0
1536691622380089176,42.88711166,-1.338905811,140.9938812,0,-20.92747498,6.740972519,-0.854075313,0
1536691622412249336,42.88711166,-1.338905811,140.9938812,0,-20.99331284,6.575677872,-0.84492135,0
1536691622486574616,42.88711166,-1.338905811,140.9938812,0,-21.13985634,6.1518507,-0.798355222,0
1536691622513919160,42.88711166,-1.338905811,140.9938812,0,-21.22690773,5.834998131,-0.800320864,0
1536691622565153656,42.88711166,-1.338905811,140.9938812,0,-21.33421707,5.483825684,-0.800681174,0
1536691622607747928,43.74486923,-0.046698857,150.0971222,0,-21.49920654,4.826588154,-0.826431215,0
1536691622658856504,43.74486923,-0.046698857,150.0971222,0,-21.54127693,4.649394989,-0.836474121,0
1536691622684838552,43.74486923,-0.046698857,150.0971222,0,-21.69812584,3.939867735,-0.912100255,0
1536691622735648696,43.74486923,-0.046698857,150.0971222,0,-21.72486496,3.76535964,-0.937826455,0
1536691622791863256,43.74486923,-0.046698857,150.0971222,0,-21.83930779,3.091859579,-1.004086375,0
1536691622840719160,43.74486923,-0.046698857,150.0971222,0,-21.90499306,2.611544371,-1.041596174,0
1536691622880921592,43.74486923,-0.046698857,150.0971222,0,-21.93023491,2.27281332,-1.103500485,0
1536691622927669784,43.74486923,-0.046698857,150.0971222,0,-21.93023491,2.27281332,-1.103500485,0
1536691622970360056,43.74486923,-0.046698857,150.0971222,0,-21.97653961,1.397450566,-1.264428377,0
1536691623015244824,45.24915695,0.792577624,159.7037506,0,-21.97968674,1.217161775,-1.292758822,0
1536691623041035800,45.24915695,0.792577624,159.7037506,0,-21.97947502,0.738240778,-1.305634618,0
1536691623136873912,45.24915695,0.792577624,159.7037506,0,-21.96977997,0.429855108,-1.305408597,0
1536691623161787864,45.24915695,0.792577624,159.7037506,0,-21.94236565,-0.009585595,-1.287243962,0
1536691623206910616,45.24915695,0.792577624,159.7037506,0,-21.91827393,-0.280567139,-1.260973215,0
1536691623239161112,45.24915695,0.792577624,159.7037506,0,-21.86715889,-0.678772449,-1.23100698,0
1536691623289697688,45.24915695,0.792577624,159.7037506,0,-21.82732582,-0.919654369,-1.21881938,0
1536691623378361240,45.24915695,0.792577624,159.7037506,0,-21.72838974,-1.40511775,-1.198257446,0
1536691623394389656,45.24915695,0.792577624,159.7037506,0,-21.67411613,-1.636183143,-1.208636045,0
1536691623472060760,44.82348251,0.451320022,170.6398163,0,-21.60936737,-1.860866427,-1.235867023,0
1536691623479133560,44.82348251,0.451320022,170.6398163,0,-21.55046463,-2.049195051,-1.265958786,0
1536691623564254488,44.82348251,0.451320022,170.6398163,0,-21.41812325,-2.432197809,-1.343158841,0
1536691623626165336,44.82348251,0.451320022,170.6398163,0,-21.31820869,-2.694123745,-1.423482299,0
1536691623681759832,44.82348251,0.451320022,170.6398163,0,-21.28573227,-2.77854538,-1.450759649,0
1536691623697081720,44.82348251,0.451320022,170.6398163,0,-21.21594238,-2.9548316,-1.510589361,0
1536691623747255384,44.82348251,0.451320022,170.6398163,0,-21.082798,-3.253059864,-1.617541313,0
1536691623800799768,44.82348251,0.451320022,170.6398163,0,-21.04799271,-3.330072403,-1.64307642,0
1536691623847530456,41.09885025,0.843430698,179.9865723,0,-20.97384453,-3.471569538,-1.700442553,0
1536691623883294808,41.09885025,0.843430698,179.9865723,0,-20.83524132,-3.732207537,-1.810446382,0
1536691623943824312,41.09885025,0.843430698,179.9865723,0,-20.72922516,-3.906061411,-1.897599697,0
1536691623997991640,41.09885025,0.843430698,179.9865723,0,-20.59665871,-4.104165554,-1.990322709,0
1536691624047227064,41.09885025,0.843430698,179.9865723,0,-20.53478813,-4.19762516,-2.029984713,0
1536691624079485208,41.09885025,0.843430698,179.9865723,0,-20.49835587,-4.237356663,-2.049873352,0
1536691624173939608,41.09885025,0.843430698,179.9865723,0,-20.36979485,-4.376773834,-2.100771904,0
1536691624205603576,34.47527695,2.733417273,-173.2414551,0,-20.30851746,-4.435984135,-2.115051508,0
1536691624251006264,34.47527695,2.733417273,-173.2414551,0,-20.25174141,-4.488315105,-2.119664907,0
1536691624289154232,34.47527695,2.733417273,-173.2414551,0,-20.1716156,-4.540085793,-2.078570604,0
1536691624364128728,34.47527695,2.733417273,-173.2414551,0,-20.08800507,-4.57435751,-2.046471357,0
1536691624438102040,34.47527695,2.733417273,-173.2414551,0,-20.03388023,-4.598894596,-2.04433465,0
1536691624457420664,34.47527695,2.733417273,-173.2414551,0,-19.95133018,-4.626577854,-2.027956724,0
1536691624480795480,34.47527695,2.733417273,-173.2414551,0,-19.87571716,-4.652463436,-2.043451071,0
1536691624541592888,25.82771492,3.259618044,-169.5112305,0,-19.84505463,-4.656159878,-2.056397438,0
1536691624583254904,25.82771492,3.259618044,-169.5112305,0,-19.79668045,-4.656955719,-2.058611631,0
1536691624624499928,25.82771492,3.259618044,-169.5112305,0,-19.70874596,-4.643587112,-2.026968479,0
1536691624722344152,25.82771492,3.259618044,-169.5112305,0,-19.68749046,-4.626159191,-2.002986431,0
1536691624758637272,25.82771492,3.259618044,-169.5112305,0,-19.61466408,-4.576206207,-1.914524555,0
1536691624826647800,25.82771492,3.259618044,-169.5112305,0,-19.58459854,-4.549049854,-1.84718895,0
1536691624877251064,25.82771492,3.259618044,-169.5112305,0,-19.52728844,-4.490078926,-1.661442876,0
1536691624918756920,25.82771492,3.259618044,-169.5112305,0,-19.46786499,-4.410830498,-1.44945085,0
1536691624997638136,25.82771492,3.259618044,-169.5112305,0,-19.44124413,-4.364046097,-1.360360146,0
1536691625020884344,14.07290363,2.18778038,-164.184845,0,-19.41671181,-4.311322212,-1.282298803,0
1536691625072431736,14.07290363,2.18778038,-164.184845,0,-19.3876915,-4.24345541,-1.169633508,0
1536691625107750584,14.07290363,2.18778038,-164.184845,0,-19.34830856,-4.129887104,-0.982697785,0
1536691625166270456,14.07290363,2.18778038,-164.184845,0,-19.3231411,-4.050348282,-0.855811477,0
1536691625234536184,14.07290363,2.18778038,-164.184845,0,-19.30341148,-3.974054575,-0.711056054,0
1536691625287087032,14.07290363,2.18778038,-164.184845,0,-19.28053665,-3.876966476,-0.498944879,0
1536691625327175800,14.07290363,2.18778038,-164.184845,0,-19.24406433,-3.743589401,-0.194665551,0
1536691625378852312,14.07290363,2.18778038,-164.184845,0,-19.21736526,-3.632522583,0.104570441,0
1536691625415767416,5.489941597,1.516643405,-162.5401001,0,-19.21190453,-3.601014614,0.153090894,0
1536691625487513528,5.489941597,1.516643405,-162.5401001,0,-19.20122147,-3.477049589,0.47215876,0
1536691625505448920,5.489941597,1.516643405,-162.5401001,0,-19.21603966,-3.307868004,0.634626508,0
1536691625584814712,5.489941597,1.516643405,-162.5401001,0,-19.23927498,-3.127993107,0.762142122,0
1536691625606285848,5.489941597,1.516643405,-162.5401001,0,-19.25506783,-3.007473707,0.952250063,0
1536691625713570008,5.489941597,1.516643405,-162.5401001,0,-19.26109505,-2.98037076,1.003313899,0
1536691625795415448,5.489941597,1.516643405,-162.5401001,0,-19.28336716,-2.868052483,1.107354879,0
