%time,Roll,Pitch,Yaw,Airspeed,VelocityX,VelocityY,VelocityZ,Anomaly
1531944031317954007,6.437785149,-1.691939235,-95.81396484,0,-2.410498619,-17.46360207,0.305700809,0
1531944031366692633,6.437785149,-1.691939235,-95.81396484,0,-2.194646358,-17.47088814,0.296207219,0
1531944031405431070,6.437785149,-1.691939235,-95.81396484,0,-2.061104774,-17.48074913,0.242061019,0
1531944031461613783,6.437785149,-1.691939235,-95.81396484,0,-1.902878404,-17.52142143,0.163218483,0
1531944031512367078,16.06657982,-0.472388864,-93.12742615,0,-1.794775963,-17.57156372,0.060761429,0
1531944031537873164,16.06657982,-0.472388864,-93.12742615,0,-1.740934134,-17.62011719,-0.017776214,0
1531944031584070504,16.06657982,-0.472388864,-93.12742615,0,-1.730764389,-17.6443119,-0.05289907,0
1531944031637412861,16.06657982,-0.472388864,-93.12742615,0,-1.73242569,-17.69296074,-0.092125177,0
1531944031664780529,16.06657982,-0.472388864,-93.12742615,0,-1.767994285,-17.76144218,-0.044349458,0
1531944031738173634,16.06657982,-0.472388864,-93.12742615,0,-1.796083808,-17.81046295,0.029885238,0
1531944031767451779,16.06657982,-0.472388864,-93.12742615,0,-1.83391571,-17.86064339,0.092208028,0
1531944031805234897,-5.072975636,-2.270016909,-93.66867828,0,-1.995730519,-17.95104218,0.189629674,0
1531944031904460165,-5.072975636,-2.270016909,-93.66867828,0,-2.12958765,-17.9902153,0.255553633,0
1531944031983714012,-5.072975636,-2.270016909,-93.66867828,0,-2.267552137,-18.02369881,0.366735101,0
1531944032015774338,-5.072975636,-2.270016909,-93.66867828,0,-2.314138651,-18.03539085,0.419361204,0
1531944032053159956,-5.072975636,-2.270016909,-93.66867828,0,-2.410824299,-18.04823875,0.518734932,0
1531944032080571271,-5.072975636,-2.270016909,-93.66867828,0,-2.553894997,-18.06587982,0.699171901,0
1531944032123506915,-5.072975636,-2.270016909,-93.66867828,0,-2.70305872,-18.08224678,0.849464357,0
1531944032215844315,-18.52810478,-5.215023994,-93.02304077,0,-2.765371084,-18.07275963,0.89825511,0
1531944032240887333,-18.52810478,-5.215023994,-93.02304077,0,-2.919872046,-18.07525635,1.040012479,0
1531944032290379841,-18.52810478,-5.215023994,-93.02304077,0,-3.08440733,-18.05669975,1.16416657,0
1531944032341727722,-18.52810478,-5.215023994,-93.02304077,0,-3.402678967,-18.00643539,1.29838264,0
1531944032448870640,-18.52810478,-5.215023994,-93.02304077,0,-3.520091772,-17.98436546,1.361343741,0
1531944032502493859,-18.52810478,-5.215023994,-93.02304077,0,-3.774990082,-17.92527008,1.425720096,0
1531944032538596866,-18.52810478,-5.215023994,-93.02304077,0,-3.984692574,-17.87621307,1.462510228,0
1531944032629529639,-18.52810478,-5.215023994,-93.02304077,0,-4.255996704,-17.80394173,1.509819746,0
1531944032703550674,-21.26247597,-5.758872986,-95.90539551,0,-4.323843956,-17.78428841,1.527613282,0
1531944032732473975,-21.26247597,-5.758872986,-95.90539551,0,-4.525512695,-17.72193909,1.597834468,0
1531944032785442128,-21.26247597,-5.758872986,-95.90539551,0,-4.728785515,-17.65727425,1.679185271,0
1531944032860159476,-21.26247597,-5.758872986,-95.90539551,0,-5.012816429,-17.56654549,1.786887169,0
1531944032902216664,-21.26247597,-5.758872986,-95.90539551,0,-5.302788734,-17.47236824,1.907831192,0
1531944032989561569,-21.26247597,-5.758872986,-95.90539551,0,-5.447064877,-17.42917061,1.94558382,0
1531944033061554144,-21.26247597,-5.758872986,-95.90539551,0,-5.664130688,-17.35689926,1.989807844,0
1531944033107803420,-22.14867973,-7.903771877,-101.6145782,0,-5.812356472,-17.31529808,2.024556398,0
1531944033151735758,-22.14867973,-7.903771877,-101.6145782,0,-6.113984108,-17.21961403,2.130326986,0
1531944033226506642,-22.14867973,-7.903771877,-101.6145782,0,-6.313606262,-17.15268326,2.218855381,0
1531944033288723665,-22.14867973,-7.903771877,-101.6145782,0,-6.435097218,-17.11525726,2.272746801,0
1531944033337139415,-22.14867973,-7.903771877,-101.6145782,0,-6.720880032,-17.02737808,2.385033369,0
1531944033388773822,-22.14867973,-7.903771877,-101.6145782,0,-6.911598682,-16.96290016,2.472136498,0
1531944033449878952,-22.91665649,-9.488915443,-104.3075104,0,-7.028893948,-16.92112541,2.56519866,0
1531944033499242373,-22.91665649,-9.488915443,-104.3075104,0,-7.088812351,-16.89575195,2.621767998,0
1531944033530705809,-22.91665649,-9.488915443,-104.3075104,0,-7.355068207,-16.7793026,2.920255661,0
1531944033627886586,-22.91665649,-9.488915443,-104.3075104,0,-7.523335934,-16.71456909,3.077972412,0
1531944033687595697,-22.91665649,-9.488915443,-104.3075104,0,-7.635922909,-16.67272568,3.16861701,0
1531944033734475399,-22.91665649,-9.488915443,-104.3075104,0,-7.853653431,-16.59561157,3.319783688,0
1531944033801946706,-22.91665649,-9.488915443,-104.3075104,0,-7.916615486,-16.57578468,3.355069399,0
1531944033836922396,-22.91665649,-9.488915443,-104.3075104,0,-8.079060555,-16.52396393,3.431214333,0
1531944033889285980,-22.91665649,-9.488915443,-104.3075104,0,-8.247619629,-16.47603607,3.511536598,0
1531944033934056166,-18.40122032,-12.06574631,-107.9372482,0,-8.398344994,-16.4305687,3.577463627,0
1531944034005847655,-18.40122032,-12.06574631,-107.9372482,0,-8.441548347,-16.41770172,3.608876944,0
1531944034032426307,-18.40122032,-12.06574631,-107.9372482,0,-8.58148098,-16.37159348,3.717803478,0
1531944034083433456,-18.40122032,-12.06574631,-107.9372482,0,-8.661110878,-16.34761238,3.766834021,0
1531944034144522554,-18.40122032,-12.06574631,-107.9372482,0,-8.79473877,-16.31222153,3.858681917,0
1531944034193070175,-18.40122032,-12.06574631,-107.9372482,0,-8.882502556,-16.28874397,3.924778461,0
1531944034232159553,-18.40122032,-12.06574631,-107.9372482,0,-8.953759193,-16.26757813,3.987206459,0
1531944034271914588,-18.40122032,-12.06574631,-107.9372482,0,-9.032110214,-16.24426079,4.064072132,0
1531944034308538774,-13.43792915,-13.76609135,-110.5679932,0,-9.177436829,-16.20476913,4.198962212,0
1531944034394474861,-13.43792915,-13.76609135,-110.5679932,0,-9.254730225,-16.1836586,4.271494865,0
1531944034414217292,-13.43792915,-13.76609135,-110.5679932,0,-9.358712196,-16.16102409,4.346726418,0
1531944034470020266,-13.43792915,-13.76609135,-110.5679932,0,-9.389957428,-16.15517998,4.375444889,0
1531944034510931194,-13.43792915,-13.76609135,-110.5679932,0,-9.532621384,-16.13254929,4.473663807,0
1531944034588346373,-13.43792915,-13.76609135,-110.5679932,0,-9.558869362,-16.13135719,4.482805729,0
1531944034611159877,-13.43792915,-13.76609135,-110.5679932,0,-9.729745865,-16.1192646,4.551752567,0
1531944034724548944,-13.43792915,-13.76609135,-110.5679932,0,-9.818342209,-16.11965179,4.578763008,0
1531944034767017073,-8.310157776,-14.81747913,-113.2273941,0,-9.910979271,-16.12295723,4.599149227,0
1531944034843415909,-8.310157776,-14.81747913,-113.2273941,0,-9.936373711,-16.12664795,4.597766399,0
1531944034858141685,-8.310157776,-14.81747913,-113.2273941,0,-10.06392288,-16.13674736,4.591209888,0
1531944034931160811,-8.310157776,-14.81747913,-113.2273941,0,-10.14643574,-16.159235,4.542297363,0
1531944035008192665,-8.310157776,-14.81747913,-113.2273941,0,-10.21207619,-16.16722488,4.516208172,0
1531944035023166279,-8.310157776,-14.81747913,-113.2273941,0,-10.28572464,-16.19367981,4.443021297,0
1531944035087771247,-8.310157776,-14.81747913,-113.2273941,0,-10.34150219,-16.20275688,4.414315224,0
1531944035137183276,-5.24577713,-14.12447071,-114.3053741,0,-10.40939903,-16.2215271,4.390391827,0
1531944035211545173,-5.24577713,-14.12447071,-114.3053741,0,-10.47478867,-16.22147179,4.402169704,0
1531944035273553398,-5.24577713,-14.12447071,-114.3053741,0,-10.50464439,-16.22816277,4.384962559,0
1531944035305145857,-5.24577713,-14.12447071,-114.3053741,0,-10.56896973,-16.24061775,4.342846394,0
1531944035369207791,-5.24577713,-14.12447071,-114.3053741,0,-10.60615349,-16.24901581,4.296538353,0
1531944035406722272,-5.24577713,-14.12447071,-114.3053741,0,-10.70514965,-16.27627945,4.152881622,0
1531944035514111174,-5.24577713,-14.12447071,-114.3053741,0,-10.74696541,-16.30897522,4.009158134,0
1531944035568966062,-3.083882332,-12.1150713,-114.4336624,0,-10.79950333,-16.32989693,3.882946968,0
1531944035624115730,-3.083882332,-12.1150713,-114.4336624,0,-10.83403206,-16.35801697,3.705946445,0
1531944035679547156,-3.083882332,-12.1150713,-114.4336624,0,-10.8642416,-16.37489128,3.575232983,0
1531944035725867215,-3.083882332,-12.1150713,-114.4336624,0,-10.87006474,-16.39677811,3.436609268,0
1531944035768866155,-3.083882332,-12.1150713,-114.4336624,0,-10.88701344,-16.4051342,3.348533869,0
1531944035830182387,-3.083882332,-12.1150713,-114.4336624,0,-10.88832664,-16.42899132,3.158785343,0
1531944035877853985,-3.083882332,-12.1150713,-114.4336624,0,-10.88799477,-16.46118927,2.84019804,0
1531944035935581836,-3.083882332,-12.1150713,-114.4336624,0,-10.87494373,-16.47236633,2.679209471,0
1531944036038393759,-0.375266761,-9.298743248,-114.0904236,0,-10.86973667,-16.47440338,2.52573514,0
1531944036078610774,-0.375266761,-9.298743248,-114.0904236,0,-10.84830284,-16.47964859,2.411063433,0
1531944036161202511,-0.375266761,-9.298743248,-114.0904236,0,-10.84106541,-16.4804821,2.361619473,0
1531944036193479668,-0.375266761,-9.298743248,-114.0904236,0,-10.83979225,-16.47337723,2.261902571,0
1531944036208160452,-0.375266761,-9.298743248,-114.0904236,0,-10.81438065,-16.46613503,2.108230829,0
1531944036248939158,-0.375266761,-9.298743248,-114.0904236,0,-10.79871082,-16.45563126,2.016860485,0
1531944036317738166,-0.375266761,-9.298743248,-114.0904236,0,-10.7952528,-16.44080162,1.922917008,0
1531944036358861476,0.99555707,-6.471579075,-115.0950775,0,-10.77618313,-16.42863083,1.80926168,0
1531944036399066427,0.99555707,-6.471579075,-115.0950775,0,-10.76142025,-16.40561867,1.652374387,0
1531944036437398532,0.99555707,-6.471579075,-115.0950775,0,-10.75333977,-16.38415909,1.553316236,0
1531944036468049177,0.99555707,-6.471579075,-115.0950775,0,-10.7295866,-16.36538315,1.454245806,0
1531944036535566245,0.99555707,-6.471579075,-115.0950775,0,-10.71277142,-16.32413483,1.363008976,0
1531944036577220526,0.99555707,-6.471579075,-115.0950775,0,-10.70951176,-16.30910301,1.325971484,0
1531944036613042832,0.99555707,-6.471579075,-115.0950775,0,-10.67645645,-16.27267647,1.210599184,0
1531944036674062108,0.17434682,-4.832958698,-115.1225891,0,-10.66636372,-16.25701141,1.180497289,0
1531944036712684130,0.17434682,-4.832958698,-115.1225891,0,-10.64019585,-16.18610191,1.091893792,0
1531944036730225559,0.17434682,-4.832958698,-115.1225891,0,-10.62610912,-16.17033958,1.064798713,0
1531944036812705425,0.17434682,-4.832958698,-115.1225891,0,-10.58158493,-16.08569908,0.955824852,0
1531944036834258942,0.17434682,-4.832958698,-115.1225891,0,-10.51765347,-16.02276802,0.861830413,0
1531944036938925088,0.17434682,-4.832958698,-115.1225891,0,-10.50417233,-16.00854301,0.846398175,0
1531944037004733885,0.818714499,-3.679078341,-114.5178833,0,-10.46359253,-15.93581009,0.815997362,0
1531944037033704482,0.818714499,-3.679078341,-114.5178833,0,-10.45047092,-15.91719341,0.806209862,0
1531944037119287614,0.818714499,-3.679078341,-114.5178833,0,-10.37460423,-15.85224056,0.75314647,0
1531944037143722991,0.818714499,-3.679078341,-114.5178833,0,-10.35669994,-15.83834744,0.74190104,0
1531944037222550157,0.818714499,-3.679078341,-114.5178833,0,-10.3121376,-15.7872467,0.708562791,0
1531944037239933411,0.818714499,-3.679078341,-114.5178833,0,-10.27494335,-15.73355484,0.70021069,0
1531944037272477669,0.818714499,-3.679078341,-114.5178833,0,-10.2418232,-15.69910336,0.697604835,0
1531944037356621264,0.818714499,-3.679078341,-114.5178833,0,-10.21178532,-15.66525555,0.69845134,0
1531944037382607250,0.818714499,-3.679078341,-114.5178833,0,-10.16638088,-15.61823559,0.688205838,0
1531944037441128822,0.818714499,-3.679078341,-114.5178833,0,-10.10196209,-15.55802345,0.657145679,0
1531944037492703230,0.818714499,-3.679078341,-114.5178833,0,-10.06828308,-15.52990437,0.636333048,0
1531944037576518732,2.712462187,-2.804557562,-113.6246948,0,-10.05283546,-15.51720333,0.624764085,0
1531944037616526693,2.712462187,-2.804557562,-113.6246948,0,-9.991372108,-15.47207451,0.571376026,0
1531944037644097208,2.712462187,-2.804557562,-113.6246948,0,-9.968859673,-15.45925903,0.562521875,0
1531944037691240555,2.712462187,-2.804557562,-113.6246948,0,-9.924724579,-15.42089081,0.530590236,0
1531944037732578423,2.712462187,-2.804557562,-113.6246948,0,-9.903733253,-15.39393139,0.51842165,0
1531944037797953945,2.712462187,-2.804557562,-113.6246948,0,-9.88706398,-15.33582401,0.477714807,0
1531944037832790852,2.712462187,-2.804557562,-113.6246948,0,-9.877280235,-15.32145405,0.46904549,0
1531944037907564138,2.712462187,-2.804557562,-113.6246948,0,-9.845121384,-15.28134537,0.45573476,0
1531944037932175418,2.712462187,-2.804557562,-113.6246948,0,-9.839176178,-15.25314808,0.470401913,0
1531944037997338493,2.712462187,-2.804557562,-113.6246948,0,-9.822324753,-15.19865036,0.466218889,0
1531944038028212976,-0.320396066,-2.093904734,-113.0557404,0,-9.819955826,-15.18595791,0.449512482,0
1531944038119127640,-0.320396066,-2.093904734,-113.0557404,0,-9.82605648,-15.13564968,0.360200852,0
1531944038144549888,-0.320396066,-2.093904734,-113.0557404,0,-9.818941116,-15.12361145,0.33664459,0
1531944038187060129,-0.320396066,-2.093904734,-113.0557404,0,-9.821593285,-15.09064484,0.317950457,0
1531944038238516682,-0.320396066,-2.093904734,-113.0557404,0,-9.806384087,-15.07075214,0.302185595,0
1531944038280867309,-0.320396066,-2.093904734,-113.0557404,0,-9.79148674,-15.04179001,0.25415796,0
1531944038333831784,-0.320396066,-2.093904734,-113.0557404,0,-9.780913353,-15.03253841,0.242767975,0
1531944038390741148,-0.320396066,-2.093904734,-113.0557404,0,-9.773806572,-15.01369476,0.265991718,0
1531944038438461386,0.749688685,-1.817547679,-112.9674454,0,-9.752856255,-14.98700333,0.325318426,0
1531944038495558204,0.749688685,-1.817547679,-112.9674454,0,-9.743733406,-14.97227192,0.382177621,0
1531944038555682129,0.749688685,-1.817547679,-112.9674454,0,-9.716573715,-14.93223763,0.501601636,0
1531944038597280379,0.749688685,-1.817547679,-112.9674454,0,-9.716227531,-14.91614151,0.544054627,0
1531944038698126371,0.749688685,-1.817547679,-112.9674454,0,-9.699744225,-14.88914108,0.613448501,0
1531944038733474985,0.749688685,-1.817547679,-112.9674454,0,-9.694607735,-14.88767147,0.63595891,0
1531944038811605871,1.116563678,-2.370881081,-113.5206146,0,-9.689444542,-14.86750698,0.665606976,0
1531944038841735816,1.116563678,-2.370881081,-113.5206146,0,-9.68219471,-14.85828304,0.674992919,0
1531944038882032351,1.116563678,-2.370881081,-113.5206146,0,-9.684379578,-14.83502197,0.675266862,0
1531944038937354883,1.116563678,-2.370881081,-113.5206146,0,-9.689090729,-14.83443928,0.676753223,0
1531944039008766633,1.116563678,-2.370881081,-113.5206146,0,-9.685974121,-14.82448769,0.656465948,0
1531944039041200749,1.116563678,-2.370881081,-113.5206146,0,-9.6863451,-14.82150173,0.653757811,0
1531944039067555276,1.116563678,-2.370881081,-113.5206146,0,-9.687874794,-14.8148222,0.626295567,0
1531944039108065472,0.307910681,-2.553291321,-113.3454971,0,-9.685268402,-14.80759621,0.612824202,0
1531944039171776818,0.307910681,-2.553291321,-113.3454971,0,-9.685173035,-14.79940128,0.603706837,0
1531944039223638424,0.307910681,-2.553291321,-113.3454971,0,-9.674561501,-14.79774666,0.612809181,0
1531944039319089173,0.307910681,-2.553291321,-113.3454971,0,-9.670267105,-14.80411339,0.628881752,0
1531944039362505229,0.307910681,-2.553291321,-113.3454971,0,-9.663414955,-14.79714108,0.628655016,0
1531944039393174146,0.307910681,-2.553291321,-113.3454971,0,-9.654297829,-14.79764938,0.655139446,0
1531944039434553006,1.570488691,-2.494250774,-112.9042282,0,-9.643912315,-14.79721642,0.674387813,0
1531944039490760105,1.570488691,-2.494250774,-112.9042282,0,-9.646194458,-14.79745674,0.674467564,0
1531944039543689764,1.570488691,-2.494250774,-112.9042282,0,-9.640322685,-14.79610729,0.66829443,0
1531944039563464867,1.570488691,-2.494250774,-112.9042282,0,-9.631439209,-14.79726791,0.68109709,0
1531944039591238164,1.570488691,-2.494250774,-112.9042282,0,-9.634378433,-14.78882408,0.66006881,0
1531944039639318111,1.570488691,-2.494250774,-112.9042282,0,-9.632274628,-14.795187,0.669057727,0
1531944039714606496,1.570488691,-2.494250774,-112.9042282,0,-9.623811722,-14.79234028,0.671470821,0
1531944039732233620,1.570488691,-2.494250774,-112.9042282,0,-9.62424469,-14.78791523,0.620173156,0
1531944039793468063,1.144990444,-2.297919035,-112.82547,0,-9.616555214,-14.78551865,0.599422336,0
1531944039893615597,1.144990444,-2.297919035,-112.82547,0,-9.615305901,-14.77969074,0.550863683,0
1531944039938558678,1.144990444,-2.297919035,-112.82547,0,-9.608519554,-14.78222752,0.533142149,0
1531944039998169425,1.144990444,-2.297919035,-112.82547,0,-9.621665001,-14.77759171,0.416424841,0
1531944040031670922,1.144990444,-2.297919035,-112.82547,0,-9.627950668,-14.76755333,0.348675638,0
1531944040101849757,0.613097548,-1.692858458,-112.6160736,0,-9.644021988,-14.75346565,0.282159686,0
1531944040153186217,0.613097548,-1.692858458,-112.6160736,0,-9.648006439,-14.75521564,0.283514261,0
1531944040209287430,0.613097548,-1.692858458,-112.6160736,0,-9.659673691,-14.73777103,0.253556609,0
1531944040246623385,0.613097548,-1.692858458,-112.6160736,0,-9.665460587,-14.72087955,0.223773241,0
1531944040299206649,0.613097548,-1.692858458,-112.6160736,0,-9.656741142,-14.70536804,0.219034448,0
1531944040369296493,0.613097548,-1.692858458,-112.6160736,0,-9.629828453,-14.70842171,0.228721455,0
1531944040400794778,0.359089285,-1.249976158,-112.5554733,0,-9.604613304,-14.7040329,0.219950005,0
1531944040443674072,0.359089285,-1.249976158,-112.5554733,0,-9.570277214,-14.70389175,0.248904005,0
1531944040488370916,0.359089285,-1.249976158,-112.5554733,0,-9.554865837,-14.69420528,0.234848797,0
1531944040539039733,0.359089285,-1.249976158,-112.5554733,0,-9.550144196,-14.68238926,0.187639982,0
1531944040604886003,0.359089285,-1.249976158,-112.5554733,0,-9.5417099,-14.67194939,0.158680037,0
1531944040674664843,0.359089285,-1.249976158,-112.5554733,0,-9.544537544,-14.65087891,0.101745293,0
1531944040714495014,0.359089285,-1.249976158,-112.5554733,0,-9.548965454,-14.64838791,0.083495371,0
1531944040740267339,0.359089285,-1.249976158,-112.5554733,0,-9.554400444,-14.61855793,0.037749976,0
1531944040796808835,0.359089285,-1.249976158,-112.5554733,0,-9.571140289,-14.58746529,0.068970405,0
1531944040836038245,1.104191184,-0.517616987,-112.2634735,0,-9.577313423,-14.56335831,0.180782169,0
1531944040877224787,1.104191184,-0.517616987,-112.2634735,0,-9.585820198,-14.5287714,0.265608758,0
1531944040936663951,1.104191184,-0.517616987,-112.2634735,0,-9.591294289,-14.51334286,0.262908638,0
1531944040990552322,1.104191184,-0.517616987,-112.2634735,0,-9.588915825,-14.5067749,0.272643924,0
1531944041067283158,1.104191184,-0.517616987,-112.2634735,0,-9.602095604,-14.48744679,0.208025962,0
1531944041093533782,1.104191184,-0.517616987,-112.2634735,0,-9.609532356,-14.47891521,0.147987068,0
1531944041135103393,1.104191184,-0.517616987,-112.2634735,0,-9.636336327,-14.4497242,0.021292144,0
1531944041196436459,1.104191184,-0.517616987,-112.2634735,0,-9.636325836,-14.44046497,0.005900661,0
1531944041217615164,1.104191184,-0.517616987,-112.2634735,0,-9.660991669,-14.41709518,-0.047047775,0
1531944041273835800,-0.747876227,-0.239526302,-110.7654114,0,-9.671045303,-14.41400909,-0.066202424,0
1531944041321729093,-0.747876227,-0.239526302,-110.7654114,0,-9.689004898,-14.3960228,-0.090618506,0
1531944041384727807,-0.747876227,-0.239526302,-110.7654114,0,-9.712556839,-14.34598732,0.022180926,0
1531944041409777643,-0.747876227,-0.239526302,-110.7654114,0,-9.71944046,-14.33094883,0.114294261,0
1531944041472606758,-0.747876227,-0.239526302,-110.7654114,0,-9.714481354,-14.3223877,0.166990712,0
1531944041485345034,-0.747876227,-0.239526302,-110.7654114,0,-9.71386528,-14.31237602,0.194826558,0
1531944041529875928,-0.747876227,-0.239526302,-110.7654114,0,-9.720736504,-14.29530239,0.242193714,0
1531944041691037269,-1.095649838,0.313094914,-110.3628845,0,-9.720773697,-14.28622818,0.325754285,0
1531944041764430089,-1.095649838,0.313094914,-110.3628845,0,-9.723792076,-14.28214931,0.364638269,0
1531944041793249968,-1.095649838,0.313094914,-110.3628845,0,-9.729823112,-14.27419186,0.360992908,0
1531944041832935661,-1.095649838,0.313094914,-110.3628845,0,-9.74962616,-14.2697134,0.420419723,0
1531944041892921477,-1.095649838,0.313094914,-110.3628845,0,-9.751084328,-14.27427769,0.451710701,0
1531944041978825183,-2.009208918,0.240752637,-110.6413498,0,-9.808290482,-14.2606945,0.46094647,0
1531944042009796593,-2.009208918,0.240752637,-110.6413498,0,-9.838173866,-14.25215435,0.463022083,0
1531944042035223641,-2.009208918,0.240752637,-110.6413498,0,-9.868730545,-14.24925137,0.441672057,0
1531944042106680321,-2.009208918,0.240752637,-110.6413498,0,-9.911397934,-14.2514534,0.434988469,0
1531944042136694332,-2.009208918,0.240752637,-110.6413498,0,-9.945919037,-14.24512005,0.396969348,0
1531944042242848466,-2.009208918,0.240752637,-110.6413498,0,-10.00169468,-14.26368713,0.28896758,0
1531944042294653113,-2.009208918,0.240752637,-110.6413498,0,-10.04840946,-14.26106453,0.183243141,0
1531944042336640288,-2.009208918,0.240752637,-110.6413498,0,-10.06456566,-14.26521969,0.182666883,0
1531944042394070544,-2.009208918,0.240752637,-110.6413498,0,-10.09270763,-14.25687122,0.134430736,0
1531944042428985212,-2.009208918,0.240752637,-110.6413498,0,-10.12710381,-14.26630974,0.071984917,0
1531944042506403817,-0.964496791,-0.17466107,-114.3136902,0,-10.1541853,-14.27591419,-0.056127097,0
1531944042577842353,-0.964496791,-0.17466107,-114.3136902,0,-10.15708542,-14.28872108,-0.073762216,0
1531944042600726866,-0.964496791,-0.17466107,-114.3136902,0,-10.15892601,-14.29816246,-0.147355527,0
1531944042626789684,-0.964496791,-0.17466107,-114.3136902,0,-10.14716721,-14.32293987,-0.318171889,0
1531944042687541988,-0.964496791,-0.17466107,-114.3136902,0,-10.133255,-14.34161186,-0.361431897,0
1531944042750651741,-0.964496791,-0.17466107,-114.3136902,0,-10.0943861,-14.36473084,-0.504360616,0
1531944042815883937,-0.964496791,-0.17466107,-114.3136902,0,-10.08759308,-14.35787869,-0.532482147,0
1531944042829695195,-0.964496791,-0.17466107,-114.3136902,0,-10.02985191,-14.37727165,-0.463967085,0
1531944042914769182,1.697302222,0.142107427,-113.8517914,0,-10.01059914,-14.37491035,-0.376852572,0
1531944042935572243,1.697302222,0.142107427,-113.8517914,0,-9.995090485,-14.37265491,-0.326817513,0
1531944043008242287,1.697302222,0.142107427,-113.8517914,0,-9.976542473,-14.35634613,-0.190749988,0
1531944043031314062,1.697302222,0.142107427,-113.8517914,0,-9.964552879,-14.34764671,-0.060204219,0
1531944043089070427,1.697302222,0.142107427,-113.8517914,0,-9.926278114,-14.35168934,0.07480868,0
1531944043156313228,1.697302222,0.142107427,-113.8517914,0,-9.89823246,-14.34722996,0.117067419,0
1531944043201624563,1.697302222,0.142107427,-113.8517914,0,-9.85193634,-14.34749031,0.304914266,0
1531944043260465430,1.697302222,0.142107427,-113.8517914,0,-9.809617043,-14.35681343,0.437354863,0
1531944043339750353,5.809929371,0.468679577,-115.7975006,0,-9.762404442,-14.35548592,0.544066131,0
1531944043356741868,5.809929371,0.468679577,-115.7975006,0,-9.730018616,-14.36473179,0.599333823,0
1531944043385111831,5.809929371,0.468679577,-115.7975006,0,-9.683384895,-14.38114262,0.662637174,0
1531944043431510611,5.809929371,0.468679577,-115.7975006,0,-9.630553246,-14.40423965,0.746609986,0
1531944043475302537,5.809929371,0.468679577,-115.7975006,0,-9.614672661,-14.40873528,0.73482877,0
1531944043532050112,5.809929371,0.468679577,-115.7975006,0,-9.546977043,-14.44247532,0.737154782,0
1531944043570878822,5.809929371,0.468679577,-115.7975006,0,-9.51113224,-14.46866035,0.731233954,0
1531944043613390568,5.809929371,0.468679577,-115.7975006,0,-9.474163055,-14.48597622,0.709464729,0
1531944043675318764,5.809929371,0.468679577,-115.7975006,0,-9.437265396,-14.50948524,0.681589901,0
1531944043740213332,6.173275948,-0.497487545,-113.6055908,0,-9.343975067,-14.55109596,0.658499956,0
1531944043787631846,6.173275948,-0.497487545,-113.6055908,0,-9.277030945,-14.5970459,0.555685639,0
1531944043813675944,6.173275948,-0.497487545,-113.6055908,0,-9.219007492,-14.61745739,0.435993075,0
1531944043887816118,6.173275948,-0.497487545,-113.6055908,0,-9.135684013,-14.65514565,0.35049513,0
1531944043933288603,6.173275948,-0.497487545,-113.6055908,0,-9.10869503,-14.66383457,0.304953516,0
1531944043965461922,6.173275948,-0.497487545,-113.6055908,0,-9.083482742,-14.67422771,0.252881527,0
1531944044002575864,6.173275948,-0.497487545,-113.6055908,0,-9.050438881,-14.6951828,0.161712602,0
1531944044119542534,6.173275948,-0.497487545,-113.6055908,0,-9.026334763,-14.6893549,0.099808298,0
1531944044165873667,6.173275948,-0.497487545,-113.6055908,0,-9.002433777,-14.69283295,-0.008858535,0
1531944044224674886,4.534986973,0.356659979,-111.9480057,0,-8.99814415,-14.68677807,-0.119070426,0
1531944044326525255,4.534986973,0.356659979,-111.9480057,0,-8.996273994,-14.6662674,-0.226806462,0
1531944044369591140,4.534986973,0.356659979,-111.9480057,0,-8.998682022,-14.64739895,-0.235277057,0
1531944044400510391,4.534986973,0.356659979,-111.9480057,0,-9.012467384,-14.6173687,-0.291378856,0
1531944044477700263,4.534986973,0.356659979,-111.9480057,0,-9.029489517,-14.58847904,-0.296318799,0
1531944044532661104,4.534986973,0.356659979,-111.9480057,0,-9.041064262,-14.58270931,-0.322747529,0
1531944044560970973,4.534986973,0.356659979,-111.9480057,0,-9.05708313,-14.5629921,-0.332185596,0
1531944044632873313,1.759150028,1.655856371,-114.4087143,0,-9.073976517,-14.5237608,-0.337681651,0
1531944044659514141,1.759150028,1.655856371,-114.4087143,0,-9.085573196,-14.50524235,-0.353914738,0
1531944044750484488,1.759150028,1.655856371,-114.4087143,0,-9.104344368,-14.48651409,-0.411946893,0
1531944044798937232,1.759150028,1.655856371,-114.4087143,0,-9.116447449,-14.46706486,-0.462336153,0
1531944044818638288,1.759150028,1.655856371,-114.4087143,0,-9.131401062,-14.42209816,-0.589517295,0
1531944044864967214,1.759150028,1.655856371,-114.4087143,0,-9.136157036,-14.39827919,-0.613717079,0
1531944044896672633,1.759150028,1.655856371,-114.4087143,0,-9.134904861,-14.35378742,-0.6602723,0
1531944044929177148,1.759150028,1.655856371,-114.4087143,0,-9.13576889,-14.33328629,-0.667364895,0
1531944044997161703,1.759150028,1.655856371,-114.4087143,0,-9.148052216,-14.29390812,-0.658569872,0
1531944045036678598,-1.486037374,2.475473166,-115.8096542,0,-9.16977787,-14.24654388,-0.722375691,0
1531944045081488434,-1.486037374,2.475473166,-115.8096542,0,-9.197035789,-14.21231365,-0.762317538,0
1531944045126833177,-1.486037374,2.475473166,-115.8096542,0,-9.225622177,-14.17755699,-0.746277452,0
1531944045193235219,-1.486037374,2.475473166,-115.8096542,0,-9.289227486,-14.10562515,-0.745842159,0
1531944045228150303,-1.486037374,2.475473166,-115.8096542,0,-9.3011446,-14.09965801,-0.757985413,0
1531944045310413247,-1.486037374,2.475473166,-115.8096542,0,-9.397174835,-13.99555874,-0.907669485,0
1531944045351409584,-1.837329388,2.510033369,-116.0968781,0,-9.439545631,-13.94617367,-0.947037041,0
1531944045417118416,-1.837329388,2.510033369,-116.0968781,0,-9.489049912,-13.88337994,-0.991775274,0
1531944045534767447,-1.837329388,2.510033369,-116.0968781,0,-9.509181976,-13.85790253,-0.97703433,0
1531944045589861151,-1.837329388,2.510033369,-116.0968781,0,-9.532014847,-13.81432438,-0.960238516,0
1531944045630818097,-1.837329388,2.510033369,-116.0968781,0,-9.539096832,-13.7925787,-0.919690311,0
1531944045718568891,-1.837329388,2.510033369,-116.0968781,0,-9.552022934,-13.75772285,-0.898921967,0
1531944045746892903,-3.320960045,2.730829477,-118.7564468,0,-9.554242134,-13.74180698,-0.863991678,0
1531944045825695753,-3.320960045,2.730829477,-118.7564468,0,-9.544347763,-13.71322155,-0.685623169,0
1531944045894121871,-3.320960045,2.730829477,-118.7564468,0,-9.539855003,-13.68278217,-0.604784667,0
1531944045970141963,-3.320960045,2.730829477,-118.7564468,0,-9.53231144,-13.68951893,-0.572801352,0
1531944046037996183,-3.320960045,2.730829477,-118.7564468,0,-9.517697334,-13.67170334,-0.490123689,0
1531944046085594408,-1.797191381,2.392372847,-118.3083267,0,-9.493320465,-13.66207981,-0.412901074,0
1531944046134059249,-1.797191381,2.392372847,-118.3083267,0,-9.48169899,-13.66006184,-0.367653042,0
1531944046205612185,-1.797191381,2.392372847,-118.3083267,0,-9.471366882,-13.66031647,-0.319394588,0
1531944046231075457,-1.797191381,2.392372847,-118.3083267,0,-9.466820717,-13.66093159,-0.27222997,0
1531944046299464168,-1.797191381,2.392372847,-118.3083267,0,-9.446515083,-13.672616,-0.148273721,0
1531944046411565989,-1.797191381,2.392372847,-118.3083267,0,-9.439472198,-13.67678261,-0.076587856,0
1531944046444219496,1.359207392,1.845288754,-117.2995071,0,-9.430890083,-13.69572639,-0.050265931,0
1531944046508289400,1.359207392,1.845288754,-117.2995071,0,-9.423069,-13.7098074,0.003817999,0
1531944046558142708,1.359207392,1.845288754,-117.2995071,0,-9.410251617,-13.74035358,0.092864849,0
1531944046632180963,1.359207392,1.845288754,-117.2995071,0,-9.402731895,-13.78015804,0.156070426,0
1531944046665720925,1.359207392,1.845288754,-117.2995071,0,-9.40049839,-13.80064964,0.227021649,0
1531944046715206492,1.359207392,1.845288754,-117.2995071,0,-9.401820183,-13.83030415,0.271980673,0
1531944046788316885,4.42437458,1.189898491,-116.810936,0,-9.40819931,-13.87754345,0.360876888,0
1531944046849697664,4.42437458,1.189898491,-116.810936,0,-9.411360741,-13.92370605,0.407779425,0
1531944046888258665,4.42437458,1.189898491,-116.810936,0,-9.418942451,-13.96875286,0.47069478,0
1531944046910060756,4.42437458,1.189898491,-116.810936,0,-9.426193237,-14.00632286,0.53484261,0
1531944046979859182,4.42437458,1.189898491,-116.810936,0,-9.444471359,-14.06117725,0.557662964,0
1531944047060098049,4.42437458,1.189898491,-116.810936,0,-9.467208862,-14.09417152,0.562091529,0
1531944047093051713,4.42437458,1.189898491,-116.810936,0,-9.490710258,-14.12150955,0.549563468,0
1531944047137583984,4.42437458,1.189898491,-116.810936,0,-9.526773453,-14.18143749,0.529078424,0
1531944047197869350,2.258191109,-0.635898411,-114.6606522,0,-9.547691345,-14.23056412,0.506373405,0
1531944047271296444,2.258191109,-0.635898411,-114.6606522,0,-9.602916718,-14.29217052,0.486230046,0
1531944047297300255,2.258191109,-0.635898411,-114.6606522,0,-9.604858398,-14.32321167,0.483349919,0
1531944047353269599,2.258191109,-0.635898411,-114.6606522,0,-9.641488075,-14.37520123,0.486692995,0
1531944047380761459,2.258191109,-0.635898411,-114.6606522,0,-9.699085236,-14.44079494,0.431602687,0
1531944047457265452,2.258191109,-0.635898411,-114.6606522,0,-9.733758926,-14.47188377,0.459569693,0
1531944047493515147,2.258191109,-0.635898411,-114.6606522,0,-9.778366089,-14.48855877,0.481799692,0
1531944047523567655,2.258191109,-0.635898411,-114.6606522,0,-9.814761162,-14.52070808,0.487072557,0
1531944047593131523,0.69196564,-1.951038361,-113.8181534,0,-9.857792854,-14.55580997,0.511758149,0
1531944047624235188,0.69196564,-1.951038361,-113.8181534,0,-9.898411751,-14.57215405,0.52299726,0
1531944047712783447,0.69196564,-1.951038361,-113.8181534,0,-9.935956955,-14.59683418,0.537925899,0
1531944047738616956,0.69196564,-1.951038361,-113.8181534,0,-10.02725124,-14.63554096,0.594635963,0
1531944047792110676,0.69196564,-1.951038361,-113.8181534,0,-10.07540798,-14.64277267,0.590238094,0
1531944047868635980,0.69196564,-1.951038361,-113.8181534,0,-10.11273098,-14.67012405,0.58148551,0
1531944047896525469,0.69196564,-1.951038361,-113.8181534,0,-10.13528252,-14.66698074,0.587057829,0
1531944047934442828,0.69196564,-1.951038361,-113.8181534,0,-10.16239357,-14.69987488,0.545219719,0
1531944047988225729,-1.263405323,-2.468690157,-114.00914,0,-10.20158768,-14.75145149,0.495708227,0
1531944048035477302,-1.263405323,-2.468690157,-114.00914,0,-10.19919109,-14.77953434,0.477636218,0
1531944048067306496,-1.263405323,-2.468690157,-114.00914,0,-10.20949459,-14.85118103,0.427557707,0
1531944048116931934,-1.263405323,-2.468690157,-114.00914,0,-10.20686054,-14.921875,0.345300555,0
1531944048173045149,-1.263405323,-2.468690157,-114.00914,0,-10.19397163,-14.97023582,0.296717674,0
1531944048241434372,-1.263405323,-2.468690157,-114.00914,0,-10.18471813,-15.01366806,0.262927681,0
1531944048271591839,-1.263405323,-2.468690157,-114.00914,0,-10.17641544,-15.03396797,0.247937649,0
1531944048287751234,-1.263405323,-2.468690157,-114.00914,0,-10.14887142,-15.07725525,0.216608047,0
1531944048338043033,-2.875049353,-2.432766199,-113.0009232,0,-10.13293934,-15.10183048,0.204718292,0
1531944048406883356,-2.875049353,-2.432766199,-113.0009232,0,-10.11916065,-15.1234045,0.190179572,0
1531944048425132139,-2.875049353,-2.432766199,-113.0009232,0,-10.08290863,-15.17041683,0.143344,0
1531944048538249535,-2.875049353,-2.432766199,-113.0009232,0,-10.03892612,-15.21150494,0.031463243,0
1531944048632494827,-2.875049353,-2.432766199,-113.0009232,0,-10.00890636,-15.23860359,-0.059331153,0
1531944048683267870,1.46784544,-1.49569571,-113.1472855,0,-9.965071678,-15.2878809,-0.136304051,0
1531944048743816241,1.46784544,-1.49569571,-113.1472855,0,-9.91593647,-15.33246994,-0.22391431,0
1531944048791587105,1.46784544,-1.49569571,-113.1472855,0,-9.858777046,-15.37502575,-0.348125994,0
1531944048874486395,1.46784544,-1.49569571,-113.1472855,0,-9.826915741,-15.39491749,-0.414548814,0
1531944048891531413,1.46784544,-1.49569571,-113.1472855,0,-9.751098633,-15.43872261,-0.557310224,0
1531944048924013722,1.46784544,-1.49569571,-113.1472855,0,-9.732427597,-15.45432472,-0.555503964,0
1531944048993699732,1.46784544,-1.49569571,-113.1472855,0,-9.650436401,-15.50296116,-0.617404342,0
1531944049033194965,6.511501312,0.2419651,-115.6023483,0,-9.629753113,-15.52186394,-0.607296646,0
1531944049120241927,6.511501312,0.2419651,-115.6023483,0,-9.533432961,-15.56284523,-0.628131151,0
1531944049145419027,6.511501312,0.2419651,-115.6023483,0,-9.477360725,-15.59056377,-0.605389237,0
1531944049197368026,6.511501312,0.2419651,-115.6023483,0,-9.400612831,-15.62269211,-0.488748252,0
1531944049251946408,6.511501312,0.2419651,-115.6023483,0,-9.301240921,-15.66912651,-0.419243008,0
1531944049278480935,6.511501312,0.2419651,-115.6023483,0,-9.230302811,-15.70042706,-0.348393023,0
1531944049336572850,6.511501312,0.2419651,-115.6023483,0,-9.152153015,-15.73543262,-0.330823094,0
1531944049415977871,6.511501312,0.2419651,-115.6023483,0,-8.967886925,-15.81437969,-0.360922605,0
1531944049433150760,9.026908875,0.996551573,-115.1062241,0,-8.756058693,-15.90506458,-0.416431665,0
1531944049507988690,9.026908875,0.996551573,-115.1062241,0,-8.696904182,-15.93388367,-0.459605098,0
1531944049547919918,9.026908875,0.996551573,-115.1062241,0,-8.537273407,-15.9944191,-0.467435479,0
1531944049618752766,9.026908875,0.996551573,-115.1062241,0,-8.368473053,-16.06920242,-0.440469295,0
1531944049633976810,9.026908875,0.996551573,-115.1062241,0,-8.199860573,-16.1192627,-0.398192823,0
1531944049701813047,9.026908875,0.996551573,-115.1062241,0,-8.085051537,-16.1610775,-0.348336279,0
1531944049760124577,9.026908875,0.996551573,-115.1062241,0,-7.924741745,-16.21680641,-0.218746781,0
1531944049811453806,9.026908875,0.996551573,-115.1062241,0,-7.86136961,-16.24633789,-0.200429678,0
1531944049827641841,9.026908875,0.996551573,-115.1062241,0,-7.59392643,-16.33259392,-0.028966907,0
1531944049929903408,9.026908875,0.996551573,-115.1062241,0,-7.453869343,-16.38578224,0.08329431,0
1531944050008352502,15.33195972,0.013295284,-109.1219635,0,-7.374077797,-16.41096497,0.140587687,0
1531944050046439940,15.33195972,0.013295284,-109.1219635,0,-7.197100639,-16.48753738,0.164024696,0
1531944050083302686,15.33195972,0.013295284,-109.1219635,0,-7.169503689,-16.49391174,0.198149636,0
1531944050132926941,15.33195972,0.013295284,-109.1219635,0,-7.074995041,-16.54994965,0.303099602,0
1531944050201315973,15.33195972,0.013295284,-109.1219635,0,-7.012557983,-16.57034683,0.344769061,0
1531944050247036585,15.33195972,0.013295284,-109.1219635,0,-6.908135414,-16.6256485,0.443066329,0
1531944050306315689,15.33195972,0.013295284,-109.1219635,0,-6.841130257,-16.66674805,0.474873632,0
1531944050339767845,18.97066689,0.045179781,-106.2614746,0,-6.619577885,-16.7845211,0.579810381,0
1531944050453455157,18.97066689,0.045179781,-106.2614746,0,-6.384562492,-16.89750671,0.736706793,0
1531944050497624296,18.97066689,0.045179781,-106.2614746,0,-6.209851742,-16.96725464,0.784054279,0
1531944050533026672,18.97066689,0.045179781,-106.2614746,0,-6.030839443,-17.04279327,0.834555686,0
1531944050586141421,18.97066689,0.045179781,-106.2614746,0,-5.90221262,-17.08934212,0.834820628,0
1531944050642621832,18.97066689,0.045179781,-106.2614746,0,-5.759902954,-17.14466858,0.842226863,0
1531944050685264747,17.54590225,0.481669217,-105.3383942,0,-5.558427811,-17.20990944,0.859412849,0
1531944050732976827,17.54590225,0.481669217,-105.3383942,0,-5.418166161,-17.2609024,0.871283174,0
1531944050783972588,17.54590225,0.481669217,-105.3383942,0,-5.068632126,-17.35684967,0.90891248,0
1531944050839671695,17.54590225,0.481669217,-105.3383942,0,-4.835092068,-17.41595459,0.871841252,0
1531944050934659925,17.54590225,0.481669217,-105.3383942,0,-4.59332943,-17.47036552,0.812569737,0
1531944051030940463,17.54590225,0.481669217,-105.3383942,0,-4.357103825,-17.50954247,0.746762037,0
1531944051089524790,18.91220093,-2.046430349,-98.63352203,0,-4.133170128,-17.54029465,0.718492568,0
1531944051157429603,18.91220093,-2.046430349,-98.63352203,0,-3.979342699,-17.5658226,0.70157814,0
1531944051192360048,18.91220093,-2.046430349,-98.63352203,0,-3.912831783,-17.56616974,0.682210326,0
1531944051221337047,18.91220093,-2.046430349,-98.63352203,0,-3.698236704,-17.59007645,0.638789773,0
1531944051285282858,18.91220093,-2.046430349,-98.63352203,0,-3.560066462,-17.60276985,0.598087788,0
1531944051325429253,18.91220093,-2.046430349,-98.63352203,0,-3.422031164,-17.61138344,0.549260795,0
1531944051426108980,18.91220093,-2.046430349,-98.63352203,0,-3.281945467,-17.62691689,0.495161265,0
1531944051493607365,22.16443253,-1.327649832,-93.17421722,0,-3.158209085,-17.63609314,0.454625756,0
1531944051564731187,22.16443253,-1.327649832,-93.17421722,0,-3.039767981,-17.6297226,0.412272781,0
1531944051603278108,22.16443253,-1.327649832,-93.17421722,0,-2.859684706,-17.63063431,0.342241883,0
1531944051667659404,22.16443253,-1.327649832,-93.17421722,0,-2.678744793,-17.61247063,0.255267888,0
1531944051691555076,22.16443253,-1.327649832,-93.17421722,0,-2.511268616,-17.59462357,0.1722821,0
1531944051737100970,22.16443253,-1.327649832,-93.17421722,0,-2.398777008,-17.5833683,0.111647695,0
1531944051787214179,22.16443253,-1.327649832,-93.17421722,0,-2.226967335,-17.56270981,0.030215722,0
1531944051838314676,19.13527489,0.287183106,-88.67024994,0,-2.159768581,-17.56237602,-0.012594766,0
1531944051864375959,19.13527489,0.287183106,-88.67024994,0,-1.934903145,-17.52036667,-0.143419951,0
1531944051903523771,19.13527489,0.287183106,-88.67024994,0,-1.870159507,-17.51807213,-0.193686247,0
1531944051963045273,19.13527489,0.287183106,-88.67024994,0,-1.657332182,-17.46820068,-0.319696665,0
1531944051989074525,19.13527489,0.287183106,-88.67024994,0,-1.55948174,-17.44023895,-0.381355345,0
1531944052052486709,19.13527489,0.287183106,-88.67024994,0,-1.498061657,-17.43470764,-0.41675967,0
1531944052085291223,19.13527489,0.287183106,-88.67024994,0,-1.370639563,-17.38248634,-0.492627293,0
1531944052137344350,19.13527489,0.287183106,-88.67024994,0,-1.282380104,-17.35402107,-0.540201604,0
1531944052215260074,16.12524414,2.194213152,-85.01804352,0,-1.127781868,-17.28959656,-0.638822556,0
1531944052245858625,16.12524414,2.194213152,-85.01804352,0,-1.094932199,-17.26272392,-0.672874033,0
1531944052298911967,16.12524414,2.194213152,-85.01804352,0,-0.97344321,-17.2111969,-0.750692606,0
1531944052351818558,16.12524414,2.194213152,-85.01804352,0,-0.831337392,-17.13196945,-0.869681299,0
1531944052390608613,16.12524414,2.194213152,-85.01804352,0,-0.768865585,-17.09080696,-0.931898057,0
1531944052479626502,16.12524414,2.194213152,-85.01804352,0,-0.6725775,-17.03984451,-1.001462221,0
1531944052504049945,16.12524414,2.194213152,-85.01804352,0,-0.62342757,-17.00020409,-1.041645646,0
1531944052531888427,16.12524414,2.194213152,-85.01804352,0,-0.604955196,-16.97074318,-1.076814771,0
1531944052592251201,16.12524414,2.194213152,-85.01804352,0,-0.515425026,-16.8914566,-1.161360145,0
1531944052631728418,13.03128719,3.566113472,-81.36170959,0,-0.441930056,-16.80971146,-1.234987259,0
1531944052689624177,13.03128719,3.566113472,-81.36170959,0,-0.42755878,-16.78540993,-1.224871755,0
1531944052735464948,13.03128719,3.566113472,-81.36170959,0,-0.379898161,-16.72960472,-1.261806488,0
1531944052787260925,13.03128719,3.566113472,-81.36170959,0,-0.352571458,-16.6911068,-1.265785456,0
1531944052872008775,13.03128719,3.566113472,-81.36170959,0,-0.322999448,-16.63709259,-1.226704001,0
1531944052905279717,13.03128719,3.566113472,-81.36170959,0,-0.297675639,-16.54659271,-1.203224897,0
1531944052969788339,13.03128719,3.566113472,-81.36170959,0,-0.27721113,-16.50634384,-1.174644351,0
1531944053010615143,13.03128719,3.566113472,-81.36170959,0,-0.279283822,-16.45435333,-1.14566493,0
1531944053036490700,13.03128719,3.566113472,-81.36170959,0,-0.274348348,-16.42612457,-1.123788714,0
1531944053076799365,8.255954742,4.728050232,-79.55722046,0,-0.271654576,-16.3720932,-1.105023742,0
1531944053121921583,8.255954742,4.728050232,-79.55722046,0,-0.275409877,-16.34602356,-1.105835199,0
1531944053190195353,8.255954742,4.728050232,-79.55722046,0,-0.291760653,-16.30238724,-1.091715336,0
1531944053208041836,8.255954742,4.728050232,-79.55722046,0,-0.2858724,-16.29485512,-1.077540398,0
1531944053276990064,8.255954742,4.728050232,-79.55722046,0,-0.307687521,-16.25042534,-1.063461423,0
1531944053308432639,8.255954742,4.728050232,-79.55722046,0,-0.326612502,-16.23182106,-1.073391795,0
1531944053375379286,8.255954742,4.728050232,-79.55722046,0,-0.35163641,-16.19750786,-1.057121038,0
1531944053422323598,5.939758301,4.991901875,-79.22166443,0,-0.358463198,-16.19548416,-1.06630969,0
1531944053532756256,5.939758301,4.991901875,-79.22166443,0,-0.381467313,-16.16690254,-1.033740282,0
1531944053595272833,5.939758301,4.991901875,-79.22166443,0,-0.396768749,-16.15493011,-1.020634055,0
1531944053630765577,5.939758301,4.991901875,-79.22166443,0,-0.414396107,-16.14364243,-1.016363859,0
1531944053696007153,5.939758301,4.991901875,-79.22166443,0,-0.422170281,-16.13010979,-0.996977091,0
1531944053749967141,2.647813559,4.425618649,-78.51988983,0,-0.433433264,-16.12255859,-0.977255464,0
1531944053804236023,2.647813559,4.425618649,-78.51988983,0,-0.437973082,-16.11381912,-0.937388599,0
1531944053838725449,2.647813559,4.425618649,-78.51988983,0,-0.451980174,-16.10426331,-0.919677675,0
1531944053889744538,2.647813559,4.425618649,-78.51988983,0,-0.475386709,-16.09482002,-0.862531662,0
1531944053928638369,2.647813559,4.425618649,-78.51988983,0,-0.488621891,-16.09140396,-0.829240322,0
1531944054008906998,2.647813559,4.425618649,-78.51988983,0,-0.511683047,-16.10269165,-0.689210773,0
1531944054033400329,2.647813559,4.425618649,-78.51988983,0,-0.526087463,-16.11326218,-0.616721094,0
1531944054066040109,2.647813559,4.425618649,-78.51988983,0,-0.536176205,-16.10766983,-0.559048116,0
1531944054135265070,-0.296768844,3.611232758,-77.51435852,0,-0.546983838,-16.11438942,-0.376193553,0
1531944054191272431,-0.296768844,3.611232758,-77.51435852,0,-0.557767987,-16.12974548,-0.189856961,0
1531944054204729068,-0.296768844,3.611232758,-77.51435852,0,-0.566679716,-16.14023781,-0.092106529,0
1531944054247123921,-0.296768844,3.611232758,-77.51435852,0,-0.573226869,-16.16666794,0.075404242,0
1531944054289096538,-0.296768844,3.611232758,-77.51435852,0,-0.567697704,-16.180233,0.113836169,0
1531944054334398659,-0.296768844,3.611232758,-77.51435852,0,-0.580848098,-16.19861984,0.203234389,0
1531944054409072623,-0.296768844,3.611232758,-77.51435852,0,-0.585924387,-16.2355957,0.317424625,0
1531944054422601292,-0.296768844,3.611232758,-77.51435852,0,-0.59841305,-16.25854492,0.396659166,0
1531944054561914950,-0.296768844,3.611232758,-77.51435852,0,-0.605498433,-16.30004883,0.482995391,0
1531944054603515347,-0.688795388,2.153285027,-77.66915131,0,-0.613018453,-16.34553719,0.556559026,0
1531944054644613060,-0.688795388,2.153285027,-77.66915131,0,-0.622866333,-16.39380264,0.621387422,0
1531944054712314964,-0.688795388,2.153285027,-77.66915131,0,-0.617454827,-16.41803932,0.639134288,0
1531944054775744461,-0.688795388,2.153285027,-77.66915131,0,-0.631089807,-16.44715118,0.695457458,0
1531944054802260172,-0.688795388,2.153285027,-77.66915131,0,-0.624037385,-16.4891243,0.733234167,0
1531944054845415786,-0.688795388,2.153285027,-77.66915131,0,-0.630597234,-16.55378914,0.777574539,0
1531944054889303040,-0.688795388,2.153285027,-77.66915131,0,-0.642891824,-16.59063149,0.797667325,0
1531944054935875389,-0.688795388,2.153285027,-77.66915131,0,-0.644900978,-16.65430069,0.801208258,0
1531944054986139094,-0.828419924,0.15163286,-78.40235901,0,-0.639479578,-16.74561882,0.816552341,0
1531944055031591997,-0.828419924,0.15163286,-78.40235901,0,-0.644027174,-16.8115921,0.809161425,0
1531944055081114685,-0.828419924,0.15163286,-78.40235901,0,-0.639736295,-16.8406353,0.806944251,0
1531944055150554653,-0.828419924,0.15163286,-78.40235901,0,-0.652614295,-16.90334511,0.815773129,0
1531944055208428140,-0.828419924,0.15163286,-78.40235901,0,-0.663066149,-16.97172737,0.782692254,0
1531944055231868297,-0.828419924,0.15163286,-78.40235901,0,-0.673097312,-17.01231384,0.755503356,0
1531944055272532991,-0.828419924,0.15163286,-78.40235901,0,-0.690656424,-17.09281158,0.80223453,0
1531944055311545765,-0.828419924,0.15163286,-78.40235901,0,-0.683263958,-17.11733437,0.789462566,0
1531944055375041917,-0.828419924,0.15163286,-78.40235901,0,-0.691060603,-17.15557098,0.777618587,0
1531944055403457706,0.074769229,-1.680723906,-79.6192627,0,-0.685245693,-17.21500969,0.712914348,0
1531944055469708904,0.074769229,-1.680723906,-79.6192627,0,-0.674943447,-17.27548409,0.614283919,0
1531944055564011638,0.074769229,-1.680723906,-79.6192627,0,-0.661125422,-17.33151245,0.499065459,0
1531944055599246689,0.074769229,-1.680723906,-79.6192627,0,-0.660175383,-17.34546089,0.450969547,0
1531944055637732780,0.074769229,-1.680723906,-79.6192627,0,-0.64838177,-17.41035271,0.34849906,0
1531944055682713784,0.074769229,-1.680723906,-79.6192627,0,-0.64000988,-17.42782784,0.314031303,0
1531944055751626332,0.074769229,-1.680723906,-79.6192627,0,-0.645175099,-17.45554352,0.245265603,0
1531944055803515302,0.074769229,-1.680723906,-79.6192627,0,-0.639721155,-17.49036598,0.214394435,0
1531944055877408602,-0.226465538,-2.188222647,-80.74111176,0,-0.647109091,-17.51388168,0.166480586,0
1531944055897702837,-0.226465538,-2.188222647,-80.74111176,0,-0.64801389,-17.54004669,0.139096394,0
1531944055922373414,-0.226465538,-2.188222647,-80.74111176,0,-0.66481781,-17.55559158,0.118877508,0
1531944055995441858,-0.226465538,-2.188222647,-80.74111176,0,-0.664353192,-17.59208298,0.052726615,0
1531944056072575223,-0.226465538,-2.188222647,-80.74111176,0,-0.663251579,-17.6045475,0.044861931,0
1531944056116008499,-0.226465538,-2.188222647,-80.74111176,0,-0.668947697,-17.6102829,0.012350584,0
1531944056135442550,-0.226465538,-2.188222647,-80.74111176,0,-0.653888345,-17.62671661,-0.00431547,0
1531944056214633592,-0.226465538,-2.188222647,-80.74111176,0,-0.634040296,-17.63879013,-0.05793494,0
1531944056239722181,1.213209152,-1.495102286,-81.60471344,0,-0.618245184,-17.63985634,-0.064528771,0
1531944056290523673,1.213209152,-1.495102286,-81.60471344,0,-0.602046013,-17.62619209,-0.060073327,0
1531944056345051241,1.213209152,-1.495102286,-81.60471344,0,-0.555694103,-17.61816978,-0.055356883,0
1531944056386020156,1.213209152,-1.495102286,-81.60471344,0,-0.529206693,-17.60796547,-0.076217771,0
1531944056438678430,1.213209152,-1.495102286,-81.60471344,0,-0.495210111,-17.59848785,-0.110351615,0
1531944056491758205,1.213209152,-1.495102286,-81.60471344,0,-0.437701494,-17.57355881,-0.163260013,0
1531944056569124847,1.213209152,-1.495102286,-81.60471344,0,-0.389763623,-17.55597687,-0.15811798,0
1531944056607771865,1.213209152,-1.495102286,-81.60471344,0,-0.277095318,-17.5168457,-0.151459157,0
1531944056667324729,2.061098337,-0.696425378,-82.74027252,0,-0.183748648,-17.48763084,-0.136318117,0
1531944056742489953,2.061098337,-0.696425378,-82.74027252,0,-0.152542144,-17.47460938,-0.161974773,0
1531944056788960639,2.061098337,-0.696425378,-82.74027252,0,-0.092765778,-17.44911575,-0.163826659,0
1531944056840194159,2.061098337,-0.696425378,-82.74027252,0,-0.033901472,-17.41666985,-0.165361419,0
1531944056880646695,2.061098337,-0.696425378,-82.74027252,0,0.066251524,-17.38074684,-0.15425007,0
1531944056963873825,4.170498371,-0.258658409,-81.90716553,0,0.105465524,-17.37226677,-0.182809442,0
1531944056993639137,4.170498371,-0.258658409,-81.90716553,0,0.210830942,-17.32616425,-0.187295437,0
1531944057028935564,4.170498371,-0.258658409,-81.90716553,0,0.25626564,-17.31794357,-0.209822014,0
1531944057089396930,4.170498371,-0.258658409,-81.90716553,0,0.421402693,-17.2589798,-0.173764765,0
1531944057130882545,4.170498371,-0.258658409,-81.90716553,0,0.45247215,-17.23612213,-0.158416688,0
1531944057208989021,4.170498371,-0.258658409,-81.90716553,0,0.608270645,-17.17403603,-0.055421054,0
1531944057272404855,4.170498371,-0.258658409,-81.90716553,0,0.697389483,-17.14037704,-0.009428564,0
1531944057323802310,4.170498371,-0.258658409,-81.90716553,0,0.854830801,-17.09184265,0.024874354,0
1531944057344041666,4.170498371,-0.258658409,-81.90716553,0,0.964560807,-17.05115128,0.045503423,0
1531944057366545352,10.60328007,0.778388977,-80.73582459,0,1.07230866,-17.01104546,0.069147676,0
1531944057434758484,10.60328007,0.778388977,-80.73582459,0,1.183124423,-16.97144318,0.088336021,0
1531944057450814808,10.60328007,0.778388977,-80.73582459,0,1.302327991,-16.93006516,0.096311703,0
1531944057517557875,10.60328007,0.778388977,-80.73582459,0,1.425718188,-16.88766098,0.092403077,0
1531944057542708863,10.60328007,0.778388977,-80.73582459,0,1.554739356,-16.84543419,0.075104378,0
1531944057619598231,10.60328007,0.778388977,-80.73582459,0,1.819895029,-16.75301552,0.059836142,0
1531944057637319563,10.60328007,0.778388977,-80.73582459,0,2.074080706,-16.6577034,0.103417233,0
1531944057718657176,10.60328007,0.778388977,-80.73582459,0,2.210780621,-16.60712242,0.126268089,0
1531944057762354641,15.33383083,1.519042253,-79.20536804,0,2.35322237,-16.55804253,0.148817047,0
1531944057785288851,15.33383083,1.519042253,-79.20536804,0,2.59275198,-16.4798317,0.168141812,0
1531944057862787653,15.33383083,1.519042253,-79.20536804,0,2.824569941,-16.3884716,0.182847127,0
1531944057884460883,15.33383083,1.519042253,-79.20536804,0,3.0721035,-16.30463219,0.228001848,0
1531944057940649300,15.33383083,1.519042253,-79.20536804,0,3.14804244,-16.26653862,0.236281082,0
1531944057969809177,15.33383083,1.519042253,-79.20536804,0,3.31658411,-16.2122879,0.29252848,0
1531944058005954332,15.33383083,1.519042253,-79.20536804,0,3.548195601,-16.12003708,0.386013657,0
1531944058054004811,15.33383083,1.519042253,-79.20536804,0,3.722899199,-16.05407906,0.428725123,0
1531944058138131549,20.43981743,1.753180146,-76.35509491,0,3.986985445,-15.94925594,0.459480733,0
1531944058200126181,20.43981743,1.753180146,-76.35509491,0,4.288539886,-15.84242153,0.449614704,0
1531944058252130606,20.43981743,1.753180146,-76.35509491,0,4.587967873,-15.71693993,0.417974651,0
1531944058286761087,20.43981743,1.753180146,-76.35509491,0,4.78804636,-15.63865852,0.39494276,0
1531944058364104275,20.43981743,1.753180146,-76.35509491,0,4.978363037,-15.56109142,0.3898983,0
1531944058403269400,20.43981743,1.753180146,-76.35509491,0,5.168183804,-15.48016453,0.38574791,0
1531944058477867910,20.43981743,1.753180146,-76.35509491,0,5.436172962,-15.35106754,0.391430467,0
1531944058503993033,20.43981743,1.753180146,-76.35509491,0,5.758346558,-15.19839573,0.490323782,0
1531944058530898309,20.43981743,1.753180146,-76.35509491,0,5.908208847,-15.12516403,0.556683123,0
1531944058586739401,27.7352314,1.449047804,-70.32917023,0,6.072788239,-15.04183483,0.606079996,0
1531944058626908228,27.7352314,1.449047804,-70.32917023,0,6.241417408,-14.95079136,0.651292264,0
1531944058684638518,27.7352314,1.449047804,-70.32917023,0,6.410844326,-14.85724545,0.681882024,0
1531944058749914366,27.7352314,1.449047804,-70.32917023,0,6.759686947,-14.66813469,0.751906574,0
1531944058789612030,27.7352314,1.449047804,-70.32917023,0,7.031981468,-14.5179863,0.80608958,0
1531944058859818199,27.7352314,1.449047804,-70.32917023,0,7.225328445,-14.39926815,0.801022708,0
1531944058894416104,27.7352314,1.449047804,-70.32917023,0,7.548354626,-14.22301769,0.807412207,0
1531944058937278633,27.7352314,1.449047804,-70.32917023,0,7.654790878,-14.1530447,0.797651649,0
1531944058990572038,27.7352314,1.449047804,-70.32917023,0,7.854218006,-14.03872395,0.82758671,0
1531944059070794494,29.64761734,1.646199107,-64.32675934,0,8.257200241,-13.77754974,0.853352606,0
1531944059112041231,29.64761734,1.646199107,-64.32675934,0,8.61473465,-13.54581642,0.813116372,0
1531944059146386755,29.64761734,1.646199107,-64.32675934,0,9.208434105,-13.12465763,0.728506923,0
1531944059193244510,29.64761734,1.646199107,-64.32675934,0,9.54162693,-12.8841877,0.71762228,0
1531944059233812437,29.64761734,1.646199107,-64.32675934,0,9.737945557,-12.72091103,0.709818065,0
1531944059279319005,29.64761734,1.646199107,-64.32675934,0,10.04345512,-12.4728775,0.697854996,0
1531944059342844439,29.64761734,1.646199107,-64.32675934,0,10.16376114,-12.3857336,0.686461091,0
1531944059366073654,29.64761734,1.646199107,-64.32675934,0,10.48447323,-12.10284519,0.574928999,0
1531944059409375572,29.64761734,1.646199107,-64.32675934,0,10.58461285,-12.00352383,0.539188683,0
1531944059473272650,29.64761734,1.646199107,-64.32675934,0,10.88637161,-11.71109104,0.44307813,0
1531944059494693626,32.52871704,0.302382946,-54.96590042,0,11.19545174,-11.40854168,0.345299125,0
1531944059533882687,32.52871704,0.302382946,-54.96590042,0,11.50792027,-11.08777237,0.221961513,0
1531944059592686023,32.52871704,0.302382946,-54.96590042,0,11.60258102,-10.97094631,0.159941182,0
1531944059672632290,32.52871704,0.302382946,-54.96590042,0,11.9967041,-10.51496983,-0.006448886,0
1531944059769773270,32.52871704,0.302382946,-54.96590042,0,12.17620468,-10.28804016,-0.082643427,0
1531944059833893386,32.52871704,0.302382946,-54.96590042,0,12.35566425,-10.04226017,-0.174741834,0
1531944059877510628,35.71467972,0.391592354,-47.64097214,0,12.54260063,-9.794438362,-0.273185223,0
1531944059942322929,35.71467972,0.391592354,-47.64097214,0,12.81167793,-9.435713768,-0.378112674,0
1531944059965194772,35.71467972,0.391592354,-47.64097214,0,13.06353855,-9.045359612,-0.52599436,0
1531944060015466638,35.71467972,0.391592354,-47.64097214,0,13.21747684,-8.797127724,-0.602240741,0
1531944060034966418,35.71467972,0.391592354,-47.64097214,0,13.3590107,-8.558060646,-0.6630072,0
1531944060082394791,35.71467972,0.391592354,-47.64097214,0,13.67437172,-7.980900288,-0.794681728,0
1531944060161594409,35.71467972,0.391592354,-47.64097214,0,13.8188839,-7.650586605,-0.861474097,0
1531944060213503828,35.71467972,0.391592354,-47.64097214,0,13.89637566,-7.449375629,-0.863134742,0
1531944060228896159,35.71467972,0.391592354,-47.64097214,0,14.00501442,-7.175409317,-0.821893454,0
1531944060285557659,35.71467972,0.391592354,-47.64097214,0,14.22010517,-6.492442131,-0.837208271,0
1531944060367611714,33.81813049,1.253537655,-37.06663895,0,14.30542946,-6.191526413,-0.89020282,0
1531944060395489204,33.81813049,1.253537655,-37.06663895,0,14.40495396,-5.78868103,-1.020292521,0
1531944060437692796,33.81813049,1.253537655,-37.06663895,0,14.43898106,-5.603188038,-1.052040219,0
1531944060484813717,33.81813049,1.253537655,-37.06663895,0,14.45956802,-5.509151459,-1.063826561,0
1531944060546615935,33.81813049,1.253537655,-37.06663895,0,14.52120972,-5.163641453,-1.083979011,0
1531944060584917037,33.81813049,1.253537655,-37.06663895,0,14.5428772,-4.987078667,-1.09679234,0
1531944060632039014,33.81813049,1.253537655,-37.06663895,0,14.58978939,-4.644870281,-1.074593782,0
1531944060712202303,33.81813049,1.253537655,-37.06663895,0,14.65627289,-4.039601326,-1.041479707,0
1531944060755730394,33.81813049,1.253537655,-37.06663895,0,14.67545033,-3.871361494,-1.017967343,0
1531944060786095892,33.81813049,1.253537655,-37.06663895,0,14.68708992,-3.614731789,-0.997723758,0
1531944060830319977,30.53725052,2.35560298,-26.78247833,0,14.69645023,-3.523190498,-0.99723655,0
1531944060882361394,30.53725052,2.35560298,-26.78247833,0,14.70585251,-3.190306187,-0.931140959,0
1531944060998065171,30.53725052,2.35560298,-26.78247833,0,14.71044254,-3.107929468,-0.924467444,0
1531944061064027606,30.53725052,2.35560298,-26.78247833,0,14.70614147,-2.948169947,-0.909466326,0
1531944061088992900,30.53725052,2.35560298,-26.78247833,0,14.7103653,-2.732980967,-0.870506465,0
1531944061175511840,30.53725052,2.35560298,-26.78247833,0,14.70419121,-2.576549292,-0.881751955,0
1531944061215002627,30.53725052,2.35560298,-26.78247833,0,14.68559265,-2.363823891,-0.877729416,0
1531944061241056071,27.24083328,2.77994585,-19.26029587,0,14.67758846,-2.227023125,-0.891216159,0
1531944061276873677,27.24083328,2.77994585,-19.26029587,0,14.66960526,-2.098983288,-0.896601617,0
1531944061343378826,27.24083328,2.77994585,-19.26029587,0,14.6239872,-1.746363163,-0.900671899,0
1531944061404461948,27.24083328,2.77994585,-19.26029587,0,14.60747623,-1.636199713,-0.870384932,0
1531944061452299502,27.24083328,2.77994585,-19.26029587,0,14.57976818,-1.497318506,-0.771610498,0
1531944061495584043,27.24083328,2.77994585,-19.26029587,0,14.57710743,-1.450411439,-0.759824276,0
1531944061590299000,24.64154816,1.901060581,-11.70030403,0,14.54287434,-1.283934116,-0.637748003,0
1531944061674773704,24.64154816,1.901060581,-11.70030403,0,14.54351616,-1.234574795,-0.60068053,0
1531944061693689361,24.64154816,1.901060581,-11.70030403,0,14.51573181,-1.11432457,-0.545793474,0
1531944061743387569,24.64154816,1.901060581,-11.70030403,0,14.50520802,-0.989697993,-0.515815198,0
1531944061785579097,24.64154816,1.901060581,-11.70030403,0,14.49030876,-0.951911747,-0.521017909,0
1531944061823234829,24.64154816,1.901060581,-11.70030403,0,14.47922611,-0.83097446,-0.562333584,0
1531944061882951756,24.64154816,1.901060581,-11.70030403,0,14.46832943,-0.761775672,-0.618144035,0
1531944061935251731,21.31631088,2.738494396,-7.368788242,0,14.44273853,-0.668171525,-0.707449913,0
1531944061996141798,21.31631088,2.738494396,-7.368788242,0,14.42692852,-0.623488545,-0.763246477,0
1531944062034025976,21.31631088,2.738494396,-7.368788242,0,14.4161129,-0.562863886,-0.833776772,0
1531944062078744776,21.31631088,2.738494396,-7.368788242,0,14.40034103,-0.556941032,-0.870451391,0
1531944062187119281,21.31631088,2.738494396,-7.368788242,0,14.39808178,-0.5090397,-0.936982214,0
1531944062209223740,21.31631088,2.738494396,-7.368788242,0,14.38660049,-0.490014374,-0.977453172,0
1531944062288995257,21.31631088,2.738494396,-7.368788242,0,14.36541653,-0.459297717,-1.016119599,0
1531944062317641221,21.31631088,2.738494396,-7.368788242,0,14.36340809,-0.456456602,-1.040780902,0
1531944062393933284,21.31631088,2.738494396,-7.368788242,0,14.3544426,-0.444846839,-1.021247745,0
1531944062414428702,16.07185364,3.583629608,-4.653169155,0,14.34330845,-0.43736282,-1.060326695,0
