%time,Roll,Pitch,Yaw,Airspeed,VelocityX,VelocityY,VelocityZ,Anomaly
1536693419523319448,9.61367321,-1.68626523,-72.03912354,0,5.056713104,-17.30558586,0.299935579,0
1536693419549132120,9.61367321,-1.68626523,-72.03912354,0,5.164293766,-17.26181793,0.328086227,0
1536693419663381656,23.87464523,-1.503906131,-71.52481079,0,5.390406609,-17.18513489,0.40786013,0
1536693419674699544,23.87464523,-1.503906131,-71.52481079,0,5.459320545,-17.16337013,0.434650987,0
1536693419738878808,23.87464523,-1.503906131,-71.52481079,0,5.711187363,-17.07436371,0.52097559,0
1536693419799192984,23.87464523,-1.503906131,-71.52481079,0,5.90691185,-17.00440407,0.595986128,0
1536693419865203576,23.87464523,-1.503906131,-71.52481079,0,6.061954021,-16.94794083,0.635198832,0
1536693419905189880,23.87464523,-1.503906131,-71.52481079,0,6.288152218,-16.88036728,0.711028695,0
1536693419955439576,23.87464523,-1.503906131,-71.52481079,0,6.447505474,-16.82362556,0.757028759,0
1536693419999853048,30.80747986,-2.736459732,-67.92739105,0,6.687077045,-16.75335693,0.850912273,0
1536693420071750968,30.80747986,-2.736459732,-67.92739105,0,6.9068923,-16.6757164,0.95636797,0
1536693420106598168,30.80747986,-2.736459732,-67.92739105,0,7.079398632,-16.6107769,1.028473377,0
1536693420137172696,30.80747986,-2.736459732,-67.92739105,0,7.230165958,-16.55463028,1.098593116,0
1536693420165464888,30.80747986,-2.736459732,-67.92739105,0,7.401618481,-16.48023224,1.160921335,0
1536693420262976760,30.80747986,-2.736459732,-67.92739105,0,7.728037834,-16.33978844,1.275694132,0
1536693420332911096,30.80747986,-2.736459732,-67.92739105,0,7.991002083,-16.21360588,1.344755173,0
1536693420371967000,30.80747986,-2.736459732,-67.92739105,0,8.164068222,-16.12210274,1.398346424,0
1536693420462519704,32.6370697,-4.775965214,-61.18000412,0,8.494301796,-15.95022869,1.511900544,0
1536693420494853496,32.6370697,-4.775965214,-61.18000412,0,8.658186913,-15.85429573,1.556964874,0
1536693420524285464,32.6370697,-4.775965214,-61.18000412,0,8.818181038,-15.7531662,1.61092031,0
1536693420587083992,32.6370697,-4.775965214,-61.18000412,0,9.045749664,-15.60888481,1.689240932,0
1536693420641243096,32.6370697,-4.775965214,-61.18000412,0,9.254912376,-15.47024536,1.790907264,0
1536693420670492024,32.6370697,-4.775965214,-61.18000412,0,9.398650169,-15.37172604,1.859670877,0
1536693420713814552,32.6370697,-4.775965214,-61.18000412,0,9.592983246,-15.23559856,1.95686543,0
1536693420788430456,32.6370697,-4.775965214,-61.18000412,0,9.716990471,-15.14621925,2.04288888,0
1536693420842412408,30.16436195,-7.087891102,-56.80589294,0,9.889600754,-15.01392365,2.160176992,0
1536693420887602328,30.16436195,-7.087891102,-56.80589294,0,9.991805077,-14.933218,2.268684864,0
1536693420932099064,30.16436195,-7.087891102,-56.80589294,0,10.20036507,-14.76262665,2.457256556,0
1536693420990672376,30.16436195,-7.087891102,-56.80589294,0,10.39625835,-14.59698296,2.654862165,0
1536693421030612408,30.16436195,-7.087891102,-56.80589294,0,10.43924713,-14.55520344,2.701966524,0
1536693421083292632,30.16436195,-7.087891102,-56.80589294,0,10.6206789,-14.39208412,2.903830051,0
1536693421136012344,30.16436195,-7.087891102,-56.80589294,0,10.71249962,-14.31102467,3.01785183,0
1536693421172519832,30.16436195,-7.087891102,-56.80589294,0,10.78729725,-14.24039364,3.114717245,0
1536693421224087032,25.10926437,-10.84178448,-52.2258606,0,10.90445995,-14.1270256,3.282557249,0
1536693421280725400,25.10926437,-10.84178448,-52.2258606,0,10.96727467,-14.05997849,3.389633417,0
1536693421322649016,25.10926437,-10.84178448,-52.2258606,0,11.02816391,-13.99785328,3.491829872,0
1536693421373878040,25.10926437,-10.84178448,-52.2258606,0,11.19916439,-13.80998516,3.856364489,0
1536693421480329464,25.10926437,-10.84178448,-52.2258606,0,11.24190712,-13.75448322,3.982512951,0
1536693421525052888,25.10926437,-10.84178448,-52.2258606,0,11.29540062,-13.69035816,4.127076149,0
1536693421574488632,25.10926437,-10.84178448,-52.2258606,0,11.37860489,-13.58216763,4.397874355,0
1536693421639504632,19.01870537,-14.83536911,-48.96853256,0,11.39701843,-13.5590477,4.463019848,0
1536693421677836792,19.01870537,-14.83536911,-48.96853256,0,11.44861412,-13.48961163,4.638284683,0
1536693421717981880,19.01870537,-14.83536911,-48.96853256,0,11.51283932,-13.41184139,4.870894909,0
1536693421784091960,19.01870537,-14.83536911,-48.96853256,0,11.52704811,-13.39347458,4.928359032,0
1536693421829443320,19.01870537,-14.83536911,-48.96853256,0,11.56167603,-13.35639095,5.039218426,0
1536693421882639032,19.01870537,-14.83536911,-48.96853256,0,11.6428566,-13.27097988,5.306768894,0
1536693421931127640,14.35518456,-17.40351486,-46.94172668,0,11.6992054,-13.22794342,5.449226379,0
1536693421994617272,14.35518456,-17.40351486,-46.94172668,0,11.75885201,-13.18446064,5.592112541,0
1536693422017607896,14.35518456,-17.40351486,-46.94172668,0,11.79914665,-13.15103626,5.671384811,0
1536693422068891064,14.35518456,-17.40351486,-46.94172668,0,11.83629894,-13.127635,5.759694099,0
1536693422114676120,14.35518456,-17.40351486,-46.94172668,0,11.9276495,-13.07636929,6.001779556,0
1536693422167613112,14.35518456,-17.40351486,-46.94172668,0,11.96712112,-13.05912399,6.133486271,0
1536693422263579832,14.35518456,-17.40351486,-46.94172668,0,11.99380112,-13.05555248,6.211518288,0
1536693422326794488,14.35518456,-17.40351486,-46.94172668,0,12.04432106,-13.05022335,6.310989857,0
1536693422355898136,9.956568718,-20.21978951,-45.06293869,0,12.1025486,-13.04586411,6.392064571,0
1536693422423098744,9.956568718,-20.21978951,-45.06293869,0,12.16610527,-13.03371811,6.459306717,0
1536693422479557048,9.956568718,-20.21978951,-45.06293869,0,12.18824291,-13.03347778,6.480863094,0
1536693422534924344,9.956568718,-20.21978951,-45.06293869,0,12.25519753,-13.03960133,6.538878441,0
1536693422560038072,9.956568718,-20.21978951,-45.06293869,0,12.34172916,-13.07356167,6.599006653,0
1536693422625930360,9.956568718,-20.21978951,-45.06293869,0,12.44703293,-13.10050297,6.643341064,0
1536693422726785112,9.956568718,-20.21978951,-45.06293869,0,12.49033642,-13.1116333,6.657983303,0
1536693422825996216,6.817862034,-20.57262993,-43.92832184,0,12.57590866,-13.13807964,6.680413246,0
1536693422867639224,6.817862034,-20.57262993,-43.92832184,0,12.59441185,-13.14832211,6.68145895,0
1536693422926719224,6.817862034,-20.57262993,-43.92832184,0,12.65919876,-13.20357895,6.691583633,0
1536693422959197432,6.817862034,-20.57262993,-43.92832184,0,12.67366123,-13.21720505,6.693832397,0
1536693423043679960,6.817862034,-20.57262993,-43.92832184,0,12.73387432,-13.27031231,6.696218014,0
1536693423065956472,6.817862034,-20.57262993,-43.92832184,0,12.7519865,-13.28383636,6.692932129,0
1536693423116671480,6.817862034,-20.57262993,-43.92832184,0,12.8208952,-13.33886337,6.692148685,0
1536693423175255096,3.869377613,-20.64696693,-43.17573929,0,12.85432243,-13.36053944,6.686307907,0
1536693423245197944,3.869377613,-20.64696693,-43.17573929,0,12.92895603,-13.42992878,6.677041054,0
1536693423286803896,3.869377613,-20.64696693,-43.17573929,0,12.96017551,-13.46063995,6.669585228,0
1536693423361743960,3.869377613,-20.64696693,-43.17573929,0,12.98706055,-13.49470615,6.668022633,0
1536693423418000920,3.869377613,-20.64696693,-43.17573929,0,13.01407146,-13.54275513,6.682213306,0
1536693423475087736,3.869377613,-20.64696693,-43.17573929,0,13.03516197,-13.59203815,6.710679054,0
1536693423531492856,1.773390055,-20.47793388,-43.10742569,0,13.05487537,-13.62113953,6.722178936,0
1536693423591386360,1.773390055,-20.47793388,-43.10742569,0,13.07540226,-13.6845541,6.727890968,0
1536693423620989656,1.773390055,-20.47793388,-43.10742569,0,13.09512329,-13.75227165,6.734471321,0
1536693423695258680,1.773390055,-20.47793388,-43.10742569,0,13.10014153,-13.77292538,6.7430439,0
1536693423713362584,1.773390055,-20.47793388,-43.10742569,0,13.11967087,-13.85575199,6.769458771,0
1536693423758216824,1.773390055,-20.47793388,-43.10742569,0,13.12548733,-13.87211514,6.775111198,0
1536693423853259320,0.473585427,-20.32641029,-43.32424164,0,13.15488243,-13.94550133,6.788024902,0
1536693423869423896,0.473585427,-20.32641029,-43.32424164,0,13.16605473,-13.96261978,6.791402817,0
1536693423938077688,0.473585427,-20.32641029,-43.32424164,0,13.20014,-14.03139973,6.804913044,0
1536693423961079672,0.473585427,-20.32641029,-43.32424164,0,13.21233463,-14.09086037,6.800323009,0
1536693424018777240,0.473585427,-20.32641029,-43.32424164,0,13.21303082,-14.11975384,6.804975033,0
1536693424109489272,0.473585427,-20.32641029,-43.32424164,0,13.23998928,-14.19790268,6.794931889,0
1536693424126376408,0.473585427,-20.32641029,-43.32424164,0,13.26037979,-14.21448708,6.785874367,0
1536693424197354968,0.473585427,-20.32641029,-43.32424164,0,13.28390312,-14.25093269,6.772440434,0
1536693424233550776,0.473585427,-20.32641029,-43.32424164,0,13.33498859,-14.38871384,6.691210747,0
1536693424274765592,0.473585427,-20.32641029,-43.32424164,0,13.37097549,-14.42392635,6.655659676,0
1536693424353287352,0.473585427,-20.32641029,-43.32424164,0,13.39522743,-14.46354675,6.607818127,0
1536693424421756536,1.107429147,-19.55817986,-43.49497223,0,13.44946957,-14.5586338,6.498908043,0
1536693424470071896,1.107429147,-19.55817986,-43.49497223,0,13.48457241,-14.59733009,6.430424213,0
1536693424544112952,1.107429147,-19.55817986,-43.49497223,0,13.50714016,-14.64979458,6.360151768,0
1536693424556781080,1.107429147,-19.55817986,-43.49497223,0,13.5489769,-14.68827438,6.285905361,0
1536693424625969656,1.107429147,-19.55817986,-43.49497223,0,13.60305119,-14.76129341,6.15205574,0
1536693424674257400,1.107429147,-19.55817986,-43.49497223,0,13.63813305,-14.80583668,6.051753521,0
1536693424720501432,1.107429147,-19.55817986,-43.49497223,0,13.75490761,-14.91796398,5.766097546,0
1536693424763629624,1.107429147,-19.55817986,-43.49497223,0,13.81930733,-14.99132633,5.560836315,0
1536693424875833912,1.873524308,-16.57971764,-43.35757828,0,13.87474632,-15.04062462,5.406875134,0
1536693424905346456,1.873524308,-16.57971764,-43.35757828,0,13.97855854,-15.13402653,5.075845718,0
1536693424965099768,1.873524308,-16.57971764,-43.35757828,0,14.00725651,-15.156991,4.988019943,0
1536693425014349624,1.873524308,-16.57971764,-43.35757828,0,14.13119125,-15.26918602,4.518350601,0
1536693425075801016,1.873524308,-16.57971764,-43.35757828,0,14.22189617,-15.3564949,4.156429291,0
1536693425161483512,1.873524308,-16.57971764,-43.35757828,0,14.33777237,-15.47028542,3.631526232,0
1536693425214494808,2.698781729,-12.20683384,-43.67184448,0,14.40577888,-15.52655315,3.275223017,0
1536693425300742872,2.698781729,-12.20683384,-43.67184448,0,14.44119644,-15.5781374,3.050425529,0
1536693425343645752,2.698781729,-12.20683384,-43.67184448,0,14.48489571,-15.60621071,2.828757763,0
1536693425396106712,2.698781729,-12.20683384,-43.67184448,0,14.51341152,-15.63960457,2.602964163,0
1536693425447273976,2.698781729,-12.20683384,-43.67184448,0,14.54010582,-15.68721485,2.256909132,0
1536693425501478872,2.698781729,-12.20683384,-43.67184448,0,14.56559753,-15.73451614,1.892424583,0
1536693425520002616,2.698781729,-12.20683384,-43.67184448,0,14.57509232,-15.74329662,1.763921261,0
1536693425595319928,2.698781729,-12.20683384,-43.67184448,0,14.59654331,-15.77678299,1.225210905,0
1536693425645244856,2.473816872,-6.458377838,-44.22380447,0,14.59949017,-15.79649353,0.827620447,0
1536693425662389368,2.473816872,-6.458377838,-44.22380447,0,14.59160519,-15.8090744,0.410455704,0
1536693425717189752,2.473816872,-6.458377838,-44.22380447,0,14.57368565,-15.81433392,0.025435317,0
1536693425806340984,2.473816872,-6.458377838,-44.22380447,0,14.55466366,-15.81386471,-0.220787778,0
1536693425833421240,2.473816872,-6.458377838,-44.22380447,0,14.52377796,-15.80989265,-0.568178296,0
1536693425883458872,2.473816872,-6.458377838,-44.22380447,0,14.51661778,-15.79573154,-0.808198094,0
1536693425917647832,2.473816872,-6.458377838,-44.22380447,0,14.46033669,-15.77178383,-1.221995354,0
1536693425960317336,2.473816872,-6.458377838,-44.22380447,0,14.4442625,-15.76367569,-1.316687107,0
1536693426029486808,2.473816872,-6.458377838,-44.22380447,0,14.36527729,-15.72468281,-1.659300566,0
1536693426059150040,2.473816872,-6.458377838,-44.22380447,0,14.35388088,-15.70873547,-1.753140211,0
1536693426118168504,2.41514492,1.422563314,-44.20026398,0,14.29878807,-15.66843224,-2.010097027,0
1536693426164774232,2.41514492,1.422563314,-44.20026398,0,14.22829437,-15.62285709,-2.272297859,0
1536693426222322808,2.41514492,1.422563314,-44.20026398,0,14.14003468,-15.55359459,-2.595599413,0
1536693426266706648,2.41514492,1.422563314,-44.20026398,0,14.06114292,-15.4838419,-2.823340416,0
1536693426322744952,2.41514492,1.422563314,-44.20026398,0,14.03902149,-15.46699142,-2.871232271,0
1536693426391428120,2.41514492,1.422563314,-44.20026398,0,13.93820381,-15.39241028,-3.075497866,0
1536693426471073048,2.41514492,1.422563314,-44.20026398,0,13.91747093,-15.37305355,-3.114718676,0
1536693426552238712,3.05099225,5.265274525,-44.01517868,0,13.85927391,-15.30391121,-3.229406834,0
1536693426566788632,3.05099225,5.265274525,-44.01517868,0,13.82051373,-15.26564217,-3.278974772,0
1536693426615182136,3.05099225,5.265274525,-44.01517868,0,13.73337269,-15.18248177,-3.367786169,0
1536693426668028344,3.05099225,5.265274525,-44.01517868,0,13.68976021,-15.13973236,-3.411671162,0
1536693426724001400,3.05099225,5.265274525,-44.01517868,0,13.6411581,-15.09368992,-3.462864161,0
1536693426754977208,3.05099225,5.265274525,-44.01517868,0,13.57363796,-15.02214241,-3.538844347,0
1536693426840698360,3.05099225,5.265274525,-44.01517868,0,13.48168087,-14.92146969,-3.621938944,0
1536693426874398168,3.05099225,5.265274525,-44.01517868,0,13.40215492,-14.81072712,-3.675842524,0
1536693426928737304,3.839469671,6.679795265,-43.72548676,0,13.37822056,-14.78206921,-3.690946102,0
1536693426994117784,3.839469671,6.679795265,-43.72548676,0,13.32555199,-14.69719887,-3.721100569,0
1536693427070391544,3.839469671,6.679795265,-43.72548676,0,13.28674412,-14.63820934,-3.741465807,0
1536693427121706648,3.839469671,6.679795265,-43.72548676,0,13.22733879,-14.54795933,-3.76837635,0
1536693427170069848,3.839469671,6.679795265,-43.72548676,0,13.18474293,-14.48748112,-3.781359196,0
1536693427220384440,3.839469671,6.679795265,-43.72548676,0,13.10023975,-14.38419437,-3.771537066,0
1536693427279915768,3.839469671,6.679795265,-43.72548676,0,13.03412437,-14.2607317,-3.751982927,0
1536693427325448280,4.640636921,7.875547886,-43.28314209,0,13.0137682,-14.23134708,-3.744446993,0
1536693427360807288,4.640636921,7.875547886,-43.28314209,0,12.95223236,-14.15633106,-3.697662592,0
1536693427452156504,4.640636921,7.875547886,-43.28314209,0,12.92478085,-14.09619522,-3.649880648,0
1536693427533497656,4.640636921,7.875547886,-43.28314209,0,12.8550806,-13.95620823,-3.488543987,0
1536693427547525912,4.640636921,7.875547886,-43.28314209,0,12.81423473,-13.85415936,-3.33383584,0
1536693427602214520,4.640636921,7.875547886,-43.28314209,0,12.80029297,-13.82812119,-3.291185379,0
1536693427655079928,4.640636921,7.875547886,-43.28314209,0,12.74103642,-13.71801472,-3.074744225,0
1536693427754018456,4.640636921,7.875547886,-43.28314209,0,12.69921875,-13.63429642,-2.89190197,0
1536693427821034488,6.544941425,7.519767761,-43.78119659,0,12.69180775,-13.60836601,-2.852772474,0
1536693427837030392,6.544941425,7.519767761,-43.78119659,0,12.65745449,-13.5518713,-2.716431618,0
1536693427923732056,6.544941425,7.519767761,-43.78119659,0,12.6298027,-13.47992516,-2.582057714,0
1536693427960344664,6.544941425,7.519767761,-43.78119659,0,12.61725044,-13.44024372,-2.482545853,0
1536693427995919480,6.544941425,7.519767761,-43.78119659,0,12.59064102,-13.37779522,-2.348596334,0
1536693428039197208,6.544941425,7.519767761,-43.78119659,0,12.5871954,-13.35463715,-2.296243906,0
1536693428108405944,6.544941425,7.519767761,-43.78119659,0,12.56655788,-13.28485775,-2.15793252,0
1536693428174591064,6.544941425,7.519767761,-43.78119659,0,12.57032394,-13.26236725,-2.113924742,0
1536693428203404504,6.544941425,7.519767761,-43.78119659,0,12.55514812,-13.19856453,-1.968422174,0
1536693428279164792,7.861654282,5.303075314,-43.45656586,0,12.55621624,-13.1035223,-1.776277304,0
1536693428296802072,7.861654282,5.303075314,-43.45656586,0,12.55700779,-13.04899597,-1.685278773,0
1536693428353935224,7.861654282,5.303075314,-43.45656586,0,12.56695271,-13.00498772,-1.588585734,0
1536693428362865752,7.861654282,5.303075314,-43.45656586,0,12.56686211,-12.95685101,-1.49586308,0
1536693428417850680,7.861654282,5.303075314,-43.45656586,0,12.58137703,-12.90587235,-1.412275791,0
1536693428507128920,7.861654282,5.303075314,-43.45656586,0,12.60258675,-12.80152702,-1.204474449,0
1536693428534160760,7.861654282,5.303075314,-43.45656586,0,12.61942577,-12.75554943,-1.069944143,0
1536693428564230776,7.861654282,5.303075314,-43.45656586,0,12.63547421,-12.69830036,-0.943675697,0
1536693428622978808,11.06027508,3.378395557,-42.64347458,0,12.66256523,-12.64718819,-0.825550914,0
1536693428672012600,11.06027508,3.378395557,-42.64347458,0,12.71787548,-12.52605534,-0.593236148,0
1536693428747648920,11.06027508,3.378395557,-42.64347458,0,12.76624584,-12.43194771,-0.461456954,0
1536693428780105048,11.06027508,3.378395557,-42.64347458,0,12.82473278,-12.33333874,-0.32909745,0
1536693428825936984,11.06027508,3.378395557,-42.64347458,0,12.8905611,-12.23163414,-0.208093092,0
1536693428873639320,11.06027508,3.378395557,-42.64347458,0,12.93140602,-12.16925621,-0.130865693,0
1536693428947339640,11.06027508,3.378395557,-42.64347458,0,13.04155254,-12.02706051,0.030354472,0
1536693429011562968,17.52758217,0.797057331,-41.44408035,0,13.07385254,-11.9866848,0.079817079,0
1536693429034973816,17.52758217,0.797057331,-41.44408035,0,13.12375259,-11.91576386,0.184789807,0
1536693429099720632,17.52758217,0.797057331,-41.44408035,0,13.21609402,-11.79829311,0.330071032,0
1536693429136260888,17.52758217,0.797057331,-41.44408035,0,13.25209045,-11.76055908,0.377069443,0
1536693429180282456,17.52758217,0.797057331,-41.44408035,0,13.35400391,-11.6343441,0.499584496,0
1536693429223886072,17.52758217,0.797057331,-41.44408035,0,13.44115734,-11.53703976,0.570995092,0
1536693429270599288,17.52758217,0.797057331,-41.44408035,0,13.64171219,-11.30627537,0.749219954,0
1536693429304834104,21.54717255,-0.95149231,-39.63434601,0,13.72735024,-11.22075462,0.838800132,0
1536693429372893304,21.54717255,-0.95149231,-39.63434601,0,13.81225872,-11.12095928,0.921771288,0
1536693429401849336,21.54717255,-0.95149231,-39.63434601,0,14.00562,-10.91092396,1.070682526,0
1536693429439882552,21.54717255,-0.95149231,-39.63434601,0,14.10075951,-10.80708122,1.124695063,0
1536693429463574712,21.54717255,-0.95149231,-39.63434601,0,14.21425247,-10.67965126,1.180976033,0
1536693429559844920,21.54717255,-0.95149231,-39.63434601,0,14.37064552,-10.50592804,1.259257197,0
1536693429631227672,21.54717255,-0.95149231,-39.63434601,0,14.55290222,-10.29483318,1.31618762,0
1536693429664158040,21.54717255,-0.95149231,-39.63434601,0,14.60081863,-10.24339008,1.333691955,0
1536693429737137816,21.54717255,-0.95149231,-39.63434601,0,14.78668404,-10.03536129,1.379056454,0
1536693429781764088,27.2383461,-3.139539957,-35.4436264,0,14.90844536,-9.887516975,1.387566209,0
1536693429830806936,27.2383461,-3.139539957,-35.4436264,0,15.16222858,-9.592889786,1.419635654,0
1536693429890314104,27.2383461,-3.139539957,-35.4436264,0,15.22673512,-9.514157295,1.426723838,0
1536693429943561752,27.2383461,-3.139539957,-35.4436264,0,15.47208405,-9.201609612,1.481690764,0
1536693429962748984,27.2383461,-3.139539957,-35.4436264,0,15.59679985,-9.036071777,1.523502707,0
1536693430041018616,27.2383461,-3.139539957,-35.4436264,0,15.7296381,-8.855901718,1.553574324,0
1536693430063175512,27.2383461,-3.139539957,-35.4436264,0,15.86240482,-8.657473564,1.553775191,0
1536693430148969208,27.2383461,-3.139539957,-35.4436264,0,16.06748009,-8.364616394,1.559112787,0
1536693430167121848,32.13376999,-3.177062988,-31.57697868,0,16.21100426,-8.156410217,1.573772192,0
1536693430225240792,32.13376999,-3.177062988,-31.57697868,0,16.56622124,-7.619953156,1.608768582,0
1536693430292707224,32.13376999,-3.177062988,-31.57697868,0,16.70446014,-7.398716927,1.617960811,0
1536693430324962840,32.13376999,-3.177062988,-31.57697868,0,16.91114426,-7.065643787,1.639462948,0
1536693430369403416,32.13376999,-3.177062988,-31.57697868,0,17.32529259,-6.346805096,1.646713376,0
1536693430429478744,32.13376999,-3.177062988,-31.57697868,0,17.46531868,-6.075098991,1.626838565,0
1536693430462956248,32.13376999,-3.177062988,-31.57697868,0,17.53082085,-5.953289509,1.626078367,0
1536693430539280536,32.13376999,-3.177062988,-31.57697868,0,17.66761589,-5.676143169,1.610751033,0
1536693430612860344,38.63817215,-3.215153217,-24.61042786,0,17.80270004,-5.404453278,1.607659578,0
1536693430662561304,38.63817215,-3.215153217,-24.61042786,0,18.0135479,-4.963884354,1.588117003,0
1536693430799114744,38.63817215,-3.215153217,-24.61042786,0,18.20231819,-4.529921532,1.56042552,0
1536693430819197240,38.63817215,-3.215153217,-24.61042786,0,18.39356041,-4.044325829,1.511053085,0
1536693430842335896,38.63817215,-3.215153217,-24.61042786,0,18.5198555,-3.726386786,1.48373723,0
1536693430881649688,38.63817215,-3.215153217,-24.61042786,0,18.62974167,-3.395990372,1.430368185,0
1536693430916468312,38.63817215,-3.215153217,-24.61042786,0,18.75112724,-3.040209293,1.376905918,0
1536693430955680536,38.63817215,-3.215153217,-24.61042786,0,18.8648777,-2.689352512,1.322769523,0
1536693431019937112,41.4902916,-3.15931344,-15.01796913,0,19.11844063,-1.743842125,1.128266931,0
1536693431112912536,41.4902916,-3.15931344,-15.01796913,0,19.25528526,-1.150618792,0.995892227,0
1536693431140227736,41.4902916,-3.15931344,-15.01796913,0,19.28800583,-0.957288146,0.956063986,0
1536693431188425528,41.4902916,-3.15931344,-15.01796913,0,19.38957214,-0.35738343,0.83028549,0
1536693431221752824,41.4902916,-3.15931344,-15.01796913,0,19.486269,0.409197897,0.693434358,0
1536693431275849496,41.4902916,-3.15931344,-15.01796913,0,19.51252937,0.782709241,0.614927053,0
1536693431312524280,41.4902916,-3.15931344,-15.01796913,0,19.55317116,1.178081155,0.535618544,0
1536693431398349592,43.20801926,-2.060911179,-5.19731617,0,19.56221008,1.803679347,0.376302749,0
1536693431451678936,43.20801926,-2.060911179,-5.19731617,0,19.55715179,2.190063238,0.28153336,0
1536693431505248696,43.20801926,-2.060911179,-5.19731617,0,19.55628777,2.617425919,0.180714399,0
1536693431591621240,43.20801926,-2.060911179,-5.19731617,0,19.52729416,3.019982815,0.080849417,0
1536693431615151224,43.20801926,-2.060911179,-5.19731617,0,19.50623322,3.416944981,-0.005368884,0
1536693431670527544,43.20801926,-2.060911179,-5.19731617,0,19.40754509,4.217803478,-0.19295314,0
1536693431703141144,43.20801926,-2.060911179,-5.19731617,0,19.27272606,5.034554958,-0.390943646,0
1536693431739033624,43.20801926,-2.060911179,-5.19731617,0,19.13404655,5.656095982,-0.532214761,0
1536693431811435384,44.16758728,0.30066216,4.986204624,0,19.04216003,6.062139988,-0.618884385,0
1536693431838636824,44.16758728,0.30066216,4.986204624,0,18.92238426,6.451537609,-0.698898435,0
1536693431886723096,44.16758728,0.30066216,4.986204624,0,18.81826591,6.836432457,-0.767947316,0
1536693431967435320,44.16758728,0.30066216,4.986204624,0,18.68748474,7.241673946,-0.855261981,0
1536693432041009272,44.16758728,0.30066216,4.986204624,0,18.46908569,7.810065746,-0.959989071,0
1536693432100072248,44.16758728,0.30066216,4.986204624,0,18.40182686,8.003899574,-0.997184277,0
1536693432145213272,44.16758728,0.30066216,4.986204624,0,18.16432762,8.577363014,-1.105265856,0
1536693432155886424,44.16758728,0.30066216,4.986204624,0,17.90895081,9.141720772,-1.198931575,0
1536693432233619960,44.16758728,0.30066216,4.986204624,0,17.62112045,9.690342903,-1.296539068,0
1536693432262704760,44.97140503,2.266978741,17.92378235,0,17.2327652,10.42199516,-1.424728513,0
1536693432308266072,44.97140503,2.266978741,17.92378235,0,16.91690826,10.94109249,-1.505834103,0
1536693432341814296,44.97140503,2.266978741,17.92378235,0,16.57458115,11.44887161,-1.591774464,0
1536693432400310904,44.97140503,2.266978741,17.92378235,0,16.3519268,11.78076363,-1.643747211,0
1536693432469341016,44.97140503,2.266978741,17.92378235,0,16.10744667,12.11853981,-1.694748163,0
1536693432510205432,44.97140503,2.266978741,17.92378235,0,15.88676834,12.41337109,-1.720056415,0
1536693432612834584,44.97140503,2.266978741,17.92378235,0,15.51520061,12.87416267,-1.758461356,0
1536693432672437752,44.97140503,2.266978741,17.92378235,0,15.26660442,13.15123367,-1.774331093,0
1536693432700088056,44.97140503,2.266978741,17.92378235,0,14.76072311,13.72526455,-1.813799858,0
1536693432761616152,46.23337173,3.919229984,31.36296082,0,14.62346077,13.88294506,-1.820119023,0
1536693432795741048,46.23337173,3.919229984,31.36296082,0,14.10426044,14.39074516,-1.836347938,0
1536693432843905720,46.23337173,3.919229984,31.36296082,0,13.83737469,14.6577282,-1.841464877,0
1536693432915284504,46.23337173,3.919229984,31.36296082,0,13.45425797,14.99680901,-1.840489626,0
1536693432936787512,46.23337173,3.919229984,31.36296082,0,13.18910885,15.23274612,-1.836966395,0
1536693433027397272,46.23337173,3.919229984,31.36296082,0,12.93056965,15.44738197,-1.816998601,0
1536693433047389112,46.23337173,3.919229984,31.36296082,0,12.80474758,15.5451107,-1.810947061,0
1536693433119098392,46.23337173,3.919229984,31.36296082,0,12.54362297,15.74833107,-1.791704297,0
1536693433163394744,46.30921555,4.743183613,41.77466202,0,12.04181099,16.14990807,-1.701257348,0
1536693433226238392,46.30921555,4.743183613,41.77466202,0,11.77978802,16.33054924,-1.660554647,0
1536693433276300024,46.30921555,4.743183613,41.77466202,0,11.50561333,16.51919365,-1.615966082,0
1536693433308966264,46.30921555,4.743183613,41.77466202,0,11.2343626,16.70830345,-1.56602025,0
1536693433314362040,46.30921555,4.743183613,41.77466202,0,10.84667397,16.97221375,-1.488147497,0
1536693433355977400,46.30921555,4.743183613,41.77466202,0,10.58314705,17.1377182,-1.436137199,0
1536693433421596664,46.30921555,4.743183613,41.77466202,0,10.16537094,17.3842659,-1.374723077,0
1536693433490713016,46.08336639,4.123108387,48.55909348,0,9.892508507,17.5495224,-1.324098945,0
1536693433515137560,46.08336639,4.123108387,48.55909348,0,9.339901924,17.87474251,-1.214377522,0
1536693433556791320,46.08336639,4.123108387,48.55909348,0,9.205999374,17.94507217,-1.191676259,0
1536693433618505080,46.08336639,4.123108387,48.55909348,0,8.779727936,18.17386627,-1.120717406,0
1536693433671076536,46.08336639,4.123108387,48.55909348,0,8.641820908,18.24656487,-1.094616055,0
1536693433717378104,46.08336639,4.123108387,48.55909348,0,8.101202965,18.51899147,-0.981704593,0
1536693433764378488,46.08336639,4.123108387,48.55909348,0,7.966536522,18.58311272,-0.951113045,0
1536693433848006648,46.99459457,2.941357374,55.91344833,0,7.429725647,18.82521057,-0.81210804,0
1536693433875694904,46.99459457,2.941357374,55.91344833,0,7.295641899,18.88711929,-0.768555045,0
1536693433915231576,46.99459457,2.941357374,55.91344833,0,6.914979935,19.05828476,-0.648327827,0
1536693433947929336,46.99459457,2.941357374,55.91344833,0,6.63806057,19.17798805,-0.570189893,0
1536693433995906520,46.99459457,2.941357374,55.91344833,0,6.362025738,19.28701973,-0.499139309,0
1536693434049892696,46.99459457,2.941357374,55.91344833,0,6.082396507,19.39327049,-0.434157491,0
1536693434122472248,46.99459457,2.941357374,55.91344833,0,5.813671589,19.49227333,-0.37183103,0
1536693434157991224,46.99459457,2.941357374,55.91344833,0,5.222280502,19.70523453,-0.284442246,0
1536693434214462232,47.27447891,1.367139339,63.48996735,0,5.068919182,19.75888252,-0.271063417,0
1536693434240153240,47.27447891,1.367139339,63.48996735,0,4.749639511,19.85958481,-0.253676444,0
1536693434286135896,47.27447891,1.367139339,63.48996735,0,4.273597717,20.00447655,-0.217849225,0
1536693434316932472,47.27447891,1.367139339,63.48996735,0,3.980077982,20.09370613,-0.155269161,0
1536693434357777336,47.27447891,1.367139339,63.48996735,0,3.703862667,20.16688919,-0.088981912,0
1536693434445327864,47.27447891,1.367139339,63.48996735,0,3.13375473,20.30330467,0.050511967,0
1536693434474088376,47.27447891,1.367139339,63.48996735,0,2.984385729,20.33530045,0.079618476,0
1536693434518673400,47.24552917,-0.077809408,70.7256012,0,2.53019309,20.42465973,0.153457552,0
1536693434561667992,47.24552917,-0.077809408,70.7256012,0,2.218000412,20.48171043,0.200189829,0
1536693434593069624,47.24552917,-0.077809408,70.7256012,0,1.920280218,20.5294075,0.239507571,0
1536693434660155320,47.24552917,-0.077809408,70.7256012,0,1.609588623,20.57597351,0.275062293,0
1536693434720428376,47.24552917,-0.077809408,70.7256012,0,1.29174602,20.62055206,0.317153513,0
1536693434748641848,47.24552917,-0.077809408,70.7256012,0,0.723957896,20.69377327,0.407139242,0
1536693434817409560,47.24552917,-0.077809408,70.7256012,0,0.294537991,20.73707199,0.49287495,0
1536693434840741784,47.24552917,-0.077809408,70.7256012,0,-0.140120208,20.77017593,0.571175814,0
1536693434898625080,47.24552917,-0.077809408,70.7256012,0,-0.580791771,20.79680824,0.630305827,0
1536693434914528088,46.46412659,-1.50230968,80.99214935,0,-1.013661981,20.8131752,0.680732608,0
1536693434969023832,46.46412659,-1.50230968,80.99214935,0,-1.452611685,20.81206703,0.708792031,0
1536693435022430392,46.46412659,-1.50230968,80.99214935,0,-1.590980411,20.81075478,0.719023168,0
1536693435110740728,46.46412659,-1.50230968,80.99214935,0,-2.009310007,20.80315781,0.73758769,0
1536693435172164760,46.46412659,-1.50230968,80.99214935,0,-2.299679995,20.79240608,0.747872114,0
1536693435225728952,46.46412659,-1.50230968,80.99214935,0,-2.730284214,20.77077675,0.766829133,0
1536693435264874232,43.24808502,-2.975330591,89.19425964,0,-3.025874615,20.74486351,0.753260612,0
1536693435317326328,43.24808502,-2.975330591,89.19425964,0,-3.71822691,20.67359543,0.689552665,0
1536693435362932408,43.24808502,-2.975330591,89.19425964,0,-4.294048786,20.5939064,0.61341089,0
1536693435438181464,43.24808502,-2.975330591,89.19425964,0,-4.432410717,20.5681591,0.586951077,0
1536693435470278200,43.24808502,-2.975330591,89.19425964,0,-4.818589687,20.4980011,0.498823404,0
1536693435526577912,43.24808502,-2.975330591,89.19425964,0,-4.957011223,20.46900177,0.464932233,0
1536693435562013784,43.24808502,-2.975330591,89.19425964,0,-5.472285271,20.34594727,0.31655091,0
1536693435668411672,38.04498672,-3.51079917,97.22531891,0,-5.707071304,20.28582001,0.243626922,0
1536693435756487480,38.04498672,-3.51079917,97.22531891,0,-5.945302486,20.22130775,0.173442125,0
1536693435775282488,38.04498672,-3.51079917,97.22531891,0,-6.167780399,20.14846992,0.089938715,0
1536693435818567192,38.04498672,-3.51079917,97.22531891,0,-6.469726086,20.05026627,-0.030147549,0
1536693435839310872,38.04498672,-3.51079917,97.22531891,0,-6.854667187,19.90664101,-0.206068605,0
1536693435918399384,38.04498672,-3.51079917,97.22531891,0,-7.004504681,19.84657478,-0.285707146,0
1536693435942158968,38.04498672,-3.51079917,97.22531891,0,-7.088980675,19.81198502,-0.329878688,0
1536693435997200984,30.60405922,-2.196990728,104.3200684,0,-7.360193729,19.66939545,-0.493449867,0
1536693436036038936,30.60405922,-2.196990728,104.3200684,0,-7.48921299,19.59650803,-0.572108567,0
1536693436100083960,30.60405922,-2.196990728,104.3200684,0,-7.639045715,19.49802208,-0.680697501,0
1536693436180184696,30.60405922,-2.196990728,104.3200684,0,-7.728748322,19.42716217,-0.740703583,0
1536693436229672088,30.60405922,-2.196990728,104.3200684,0,-7.800214291,19.37327003,-0.786495447,0
1536693436253123320,30.60405922,-2.196990728,104.3200684,0,-7.889351368,19.28250122,-0.872891843,0
1536693436297357656,30.60405922,-2.196990728,104.3200684,0,-7.923175335,19.25414848,-0.901225567,0
1536693436377441336,30.60405922,-2.196990728,104.3200684,0,-7.980687141,19.1739521,-0.985261559,0
1536693436416227864,18.06568336,-0.191266,110.0615616,0,-8.044506073,19.07447243,-1.08722055,0
1536693436473450776,18.06568336,-0.191266,110.0615616,0,-8.050034523,19.0311203,-1.12606144,0
1536693436507337944,18.06568336,-0.191266,110.0615616,0,-8.051618576,18.96774864,-1.192503691,0
1536693436574079224,18.06568336,-0.191266,110.0615616,0,-8.043526649,18.92086983,-1.241035104,0
1536693436589297400,18.06568336,-0.191266,110.0615616,0,-7.991202354,18.8524456,-1.31018436,0
1536693436611841304,18.06568336,-0.191266,110.0615616,0,-7.972475052,18.83346939,-1.326675415,0
1536693436728360856,18.06568336,-0.191266,110.0615616,0,-7.90437603,18.78684998,-1.354025841,0
1536693436780993368,5.739789486,0.338920295,112.7371674,0,-7.855531693,18.76640892,-1.363023639,0
1536693436820309016,5.739789486,0.338920295,112.7371674,0,-7.755645752,18.72835541,-1.404524803,0
1536693436860191576,5.739789486,0.338920295,112.7371674,0,-7.568776131,18.68016052,-1.450895667,0
1536693436950742936,5.739789486,0.338920295,112.7371674,0,-7.444895267,18.65217972,-1.440706968,0
1536693436973964376,5.739789486,0.338920295,112.7371674,0,-7.354794502,18.63510323,-1.437003255,0
1536693437027102904,5.739789486,0.338920295,112.7371674,0,-7.265452385,18.62223053,-1.420015335,0
1536693437063060792,5.739789486,0.338920295,112.7371674,0,-7.079200745,18.60115623,-1.363554597,0
1536693437115154584,5.739789486,0.338920295,112.7371674,0,-6.980494022,18.59095192,-1.328209281,0
1536693437189993368,5.739789486,0.338920295,112.7371674,0,-6.81401968,18.5748024,-1.281118751,0
1536693437259928088,5.739789486,0.338920295,112.7371674,0,-6.763156414,18.57500076,-1.261083603,0
1536693437326906936,-8.718776703,1.289299965,112.319664,0,-6.595870018,18.56553078,-1.209155679,0
1536693437380914520,-8.718776703,1.289299965,112.319664,0,-6.379300594,18.55633163,-1.079289913,0
1536693437433988536,-8.718776703,1.289299965,112.319664,0,-6.273116589,18.5496254,-0.99781096,0
1536693437488533656,-8.718776703,1.289299965,112.319664,0,-6.167832851,18.542202,-0.92114675,0
1536693437542655576,-8.718776703,1.289299965,112.319664,0,-6.057291508,18.53825188,-0.854486048,0
1536693437565937432,-8.718776703,1.289299965,112.319664,0,-5.944466591,18.53806877,-0.793400764,0
1536693437628933752,-8.718776703,1.289299965,112.319664,0,-5.774544239,18.53143883,-0.697618723,0
1536693437715424184,-13.89617729,0.64642179,110.7807083,0,-5.659787655,18.52899551,-0.632496178,0
1536693437737299544,-13.89617729,0.64642179,110.7807083,0,-5.435422897,18.52811241,-0.490567595,0
1536693437765895896,-13.89617729,0.64642179,110.7807083,0,-5.32088232,18.52768135,-0.419878155,0
1536693437831199064,-13.89617729,0.64642179,110.7807083,0,-5.160953045,18.52190018,-0.284148872,0
1536693437870308856,-13.89617729,0.64642179,110.7807083,0,-5.105566502,18.52071381,-0.240315631,0
1536693437914673080,-13.89617729,0.64642179,110.7807083,0,-4.900892735,18.51353455,-0.042593267,0
1536693437957465176,-13.89617729,0.64642179,110.7807083,0,-4.801482201,18.50892067,0.05882287,0
1536693438045302136,-13.89617729,0.64642179,110.7807083,0,-4.650884151,18.50933075,0.208995104,0
1536693438090575928,-16.94499207,-1.002838016,108.5645065,0,-4.59940815,18.50910187,0.26486215,0
1536693438144038424,-16.94499207,-1.002838016,108.5645065,0,-4.444558144,18.50953484,0.386015683,0
1536693438163161848,-16.94499207,-1.002838016,108.5645065,0,-4.340569496,18.51309013,0.472096056,0
1536693438240428024,-16.94499207,-1.002838016,108.5645065,0,-4.143338203,18.52026939,0.646336436,0
1536693438294273592,-16.94499207,-1.002838016,108.5645065,0,-4.040819168,18.52480507,0.730747342,0
1536693438338340696,-16.94499207,-1.002838016,108.5645065,0,-3.939388752,18.52687073,0.794996619,0
1536693438385898648,-16.94499207,-1.002838016,108.5645065,0,-3.836357594,18.53507042,0.875941873,0
1536693438430511576,-16.94499207,-1.002838016,108.5645065,0,-3.622737408,18.54662132,1.014606595,0
1536693438466081848,-16.94499207,-1.002838016,108.5645065,0,-3.573930025,18.54876328,1.044214964,0
1536693438538919928,-16.61284637,-4.044907093,104.8809738,0,-3.353403568,18.5708828,1.143635511,0
1536693438593114744,-16.61284637,-4.044907093,104.8809738,0,-3.298780918,18.57719803,1.178500652,0
1536693438625145592,-16.61284637,-4.044907093,104.8809738,0,-3.084341288,18.59776115,1.284913182,0
1536693438677927608,-16.61284637,-4.044907093,104.8809738,0,-3.024898767,18.60321999,1.306660533,0
1536693438746041464,-16.61284637,-4.044907093,104.8809738,0,-2.869563103,18.6205883,1.383524179,0
1536693438759317688,-16.61284637,-4.044907093,104.8809738,0,-2.762256145,18.63783264,1.432157636,0
1536693438857799992,-16.61284637,-4.044907093,104.8809738,0,-2.543638945,18.66312981,1.500905991,0
1536693438873438104,-16.61284637,-4.044907093,104.8809738,0,-2.49087739,18.66898155,1.520556808,0
1536693438945324152,-16.00323677,-5.61770153,101.027504,0,-2.32937479,18.6938324,1.565431833,0
1536693438965851576,-16.00323677,-5.61770153,101.027504,0,-2.225535154,18.71002388,1.597511292,0
1536693439033429080,-16.00323677,-5.61770153,101.027504,0,-2.077414036,18.72620773,1.641282916,0
1536693439065525688,-16.00323677,-5.61770153,101.027504,0,-1.976011276,18.74069214,1.662175059,0
1536693439129728472,-16.00323677,-5.61770153,101.027504,0,-1.777812123,18.7752533,1.695883751,0
1536693439168913272,-16.00323677,-5.61770153,101.027504,0,-1.725559473,18.78115845,1.695914865,0
1536693439221812440,-16.00323677,-5.61770153,101.027504,0,-1.629740357,18.79643059,1.705368638,0
1536693439267766616,-15.00816441,-6.337281704,98.24716949,0,-1.4885602,18.82176399,1.725701809,0
1536693439325109528,-15.00816441,-6.337281704,98.24716949,0,-1.257246614,18.85998535,1.730100513,0
1536693439369652664,-15.00816441,-6.337281704,98.24716949,0,-1.115851879,18.87376595,1.729120731,0
1536693439426040184,-15.00816441,-6.337281704,98.24716949,0,-0.928427815,18.90306282,1.680317163,0
1536693439475173272,-15.00816441,-6.337281704,98.24716949,0,-0.835122347,18.92166138,1.643215656,0
1536693439511320856,-15.00816441,-6.337281704,98.24716949,0,-0.788771987,18.93444633,1.634329438,0
1536693439560434040,-12.65641689,-6.608139515,95.65563202,0,-0.658751667,18.94848633,1.575251579,0
1536693439681156216,-12.65641689,-6.608139515,95.65563202,0,-0.523320556,18.95436478,1.507255435,0
1536693439714310168,-12.65641689,-6.608139515,95.65563202,0,-0.399782568,18.9727459,1.466434598,0
1536693439777802360,-12.65641689,-6.608139515,95.65563202,0,-0.363039702,18.97837257,1.447503328,0
1536693439828311896,-12.65641689,-6.608139515,95.65563202,0,-0.248356655,18.97589493,1.425619483,0
1536693439877548376,-10.35626316,-6.034080029,92.76541901,0,-0.176230147,18.98102951,1.410537124,0
1536693439920637624,-10.35626316,-6.034080029,92.76541901,0,-0.067021139,18.98277664,1.389378548,0
1536693439963046648,-10.35626316,-6.034080029,92.76541901,0,0.06922473,18.99641418,1.336045861,0
1536693440042752760,-10.35626316,-6.034080029,92.76541901,0,0.137937382,18.99650383,1.301633716,0
1536693440078369816,-10.35626316,-6.034080029,92.76541901,0,0.204198241,18.99616814,1.268605351,0
1536693440120994392,-10.35626316,-6.034080029,92.76541901,0,0.267335922,18.99556923,1.221308947,0
1536693440155081336,-10.35626316,-6.034080029,92.76541901,0,0.328156412,19.00598526,1.187045217,0
1536693440234114520,-10.35626316,-6.034080029,92.76541901,0,0.408330858,18.99242401,1.139725089,0
1536693440265703160,-7.281482697,-5.354301929,89.39224243,0,0.437064886,18.99336433,1.142778754,0
1536693440333933496,-7.281482697,-5.354301929,89.39224243,0,0.482465267,18.98494339,1.124652505,0
1536693440364915192,-7.281482697,-5.354301929,89.39224243,0,0.57265085,18.98669243,1.104904413,0
1536693440414882808,-7.281482697,-5.354301929,89.39224243,0,0.629233956,18.97465706,1.064611793,0
1536693440479927768,-7.281482697,-5.354301929,89.39224243,0,0.673191845,18.96704102,1.032503724,0
1536693440509564568,-7.281482697,-5.354301929,89.39224243,0,0.737973511,18.95901108,0.934084475,0
1536693440540632440,-7.281482697,-5.354301929,89.39224243,0,0.806352079,18.94053841,0.849285662,0
1536693440603031352,-7.281482697,-5.354301929,89.39224243,0,0.85150218,18.92176628,0.807575226,0
1536693440672125848,-7.281482697,-5.354301929,89.39224243,0,0.86666137,18.91557121,0.798384905,0
1536693440740319096,-3.769457102,-4.055249691,87.07027435,0,0.897410274,18.90306854,0.743815243,0
1536693440754394584,-3.769457102,-4.055249691,87.07027435,0,0.906642735,18.89179039,0.691649735,0
1536693440846699448,-3.769457102,-4.055249691,87.07027435,0,0.945387006,18.87710953,0.598161399,0
1536693440910270840,-3.769457102,-4.055249691,87.07027435,0,0.968524098,18.83597755,0.521683216,0
1536693440960261144,-3.769457102,-4.055249691,87.07027435,0,0.975139916,18.82962418,0.503047943,0
1536693441044235352,-3.769457102,-4.055249691,87.07027435,0,0.977030516,18.81548691,0.441789597,0
1536693441066689272,-0.082187131,-2.960425138,85.88508606,0,0.96956116,18.81134605,0.408775091,0
1536693441109364056,-0.082187131,-2.960425138,85.88508606,0,0.966294646,18.79532051,0.318588585,0
1536693441142368056,-0.082187131,-2.960425138,85.88508606,0,0.968147814,18.78226852,0.265134513,0
1536693441212723704,-0.082187131,-2.960425138,85.88508606,0,0.954272628,18.76734734,0.195877314,0
1536693441271018648,-0.082187131,-2.960425138,85.88508606,0,0.935765028,18.75707245,0.159265175,0
1536693441389654360,-0.082187131,-2.960425138,85.88508606,0,0.913585067,18.73788261,0.124185726,0
1536693441428504472,-0.082187131,-2.960425138,85.88508606,0,0.883702517,18.70826149,0.121108003,0
1536693441485326808,2.430455923,-1.914463997,85.68131256,0,0.853924036,18.68950653,0.108818494,0
1536693441511465304,2.430455923,-1.914463997,85.68131256,0,0.835745096,18.6816597,0.10693413,0
1536693441536001720,2.430455923,-1.914463997,85.68131256,0,0.811354697,18.66426277,0.113728389,0
1536693441602174424,2.430455923,-1.914463997,85.68131256,0,0.783648193,18.64826393,0.12333028,0
1536693441667929112,2.430455923,-1.914463997,85.68131256,0,0.761426151,18.6286068,0.132447898,0
1536693441717182040,2.430455923,-1.914463997,85.68131256,0,0.740470052,18.62460136,0.148479387,0
1536693441745375352,2.430455923,-1.914463997,85.68131256,0,0.712328374,18.61357498,0.178177342,0
1536693441843926232,2.430455923,-1.914463997,85.68131256,0,0.681202471,18.60232544,0.212943628,0
1536693441908462456,2.430455923,-1.914463997,85.68131256,0,0.632613897,18.58480835,0.242353752,0
1536693441955110520,5.466903687,-1.030446053,86.27976227,0,0.591483593,18.57764053,0.236221656,0
1536693442009142520,5.466903687,-1.030446053,86.27976227,0,0.572959781,18.57063484,0.224950865,0
1536693442070191224,5.466903687,-1.030446053,86.27976227,0,0.535435796,18.55508804,0.193016306,0
1536693442100731832,5.466903687,-1.030446053,86.27976227,0,0.476045042,18.54060745,0.13410008,0
1536693442149839768,5.466903687,-1.030446053,86.27976227,0,0.444239914,18.52869034,0.100646324,0
1536693442193812024,5.466903687,-1.030446053,86.27976227,0,0.409747839,18.52892303,0.06928581,0
1536693442234135096,6.277856827,-1.557092667,86.57776642,0,0.367650956,18.51450348,0.038006272,0
1536693442347389496,6.277856827,-1.557092667,86.57776642,0,0.337513715,18.49815941,0.006878534,0
1536693442401116440,6.277856827,-1.557092667,86.57776642,0,0.312334031,18.49526024,-0.005524413,0
1536693442443582360,6.277856827,-1.557092667,86.57776642,0,0.281888843,18.48399735,-0.026969129,0
1536693442513790616,6.277856827,-1.557092667,86.57776642,0,0.253672183,18.46835518,-0.063331448,0
1536693442589549688,6.277856827,-1.557092667,86.57776642,0,0.233277351,18.4661808,-0.078289911,0
1536693442601073272,6.277856827,-1.557092667,86.57776642,0,0.208327577,18.45415688,-0.10620106,0
1536693442657329944,6.277856827,-1.557092667,86.57776642,0,0.180230454,18.44250298,-0.113648683,0
1536693442707695640,6.277856827,-1.557092667,86.57776642,0,0.150372565,18.42968559,-0.023359321,0
1536693442747500792,5.987259388,-0.837265015,87.645401,0,0.125724241,18.42759132,0.053095769,0
1536693442819951224,5.987259388,-0.837265015,87.645401,0,0.11480552,18.41983795,0.137898952,0
1536693442869850104,5.987259388,-0.837265015,87.645401,0,0.087810792,18.41184807,0.235948265,0
1536693442920521400,5.987259388,-0.837265015,87.645401,0,0.064952508,18.41331482,0.280165762,0
1536693442946003640,5.987259388,-0.837265015,87.645401,0,0.058411501,18.40573692,0.292864621,0
1536693442997581080,5.987259388,-0.837265015,87.645401,0,0.029819602,18.40377235,0.315138072,0
1536693443053320760,5.987259388,-0.837265015,87.645401,0,0.019272467,18.40369225,0.312351257,0
1536693443117506616,5.658324718,-0.444209397,87.70354462,0,-0.0036834,18.39577866,0.297859907,0
1536693443144512472,5.658324718,-0.444209397,87.70354462,0,-0.02669383,18.38629913,0.293839306,0
1536693443209323192,5.658324718,-0.444209397,87.70354462,0,-0.029124681,18.38970375,0.304227918,0
1536693443266627704,5.658324718,-0.444209397,87.70354462,0,-0.054780997,18.3809967,0.368122786,0
1536693443300766680,5.658324718,-0.444209397,87.70354462,0,-0.053312659,18.37338638,0.436131805,0
1536693443314502040,5.658324718,-0.444209397,87.70354462,0,-0.047704734,18.37735939,0.473623306,0
1536693443383677368,5.658324718,-0.444209397,87.70354462,0,-0.039291419,18.37050438,0.502589703,0
1536693443418420440,5.658324718,-0.444209397,87.70354462,0,-0.022045447,18.37158203,0.565225065,0
1536693443469213592,5.658324718,-0.444209397,87.70354462,0,-0.023423277,18.37257385,0.581733882,0
1536693443544154392,5.572026253,-1.006296515,87.55200958,0,-0.016221981,18.37190819,0.594140172,0
1536693443557732568,5.572026253,-1.006296515,87.55200958,0,-0.010462839,18.37948799,0.618643463,0
1536693443658637368,5.572026253,-1.006296515,87.55200958,0,0.005019012,18.38544846,0.639658034,0
1536693443749647064,5.572026253,-1.006296515,87.55200958,0,0.018649029,18.39176941,0.672158957,0
1536693443783478872,5.572026253,-1.006296515,87.55200958,0,0.027571103,18.38985634,0.669093549,0
1536693443824651128,5.572026253,-1.006296515,87.55200958,0,0.041180905,18.40626144,0.651699901,0
1536693443886993496,3.876551628,-1.40461576,87.19520569,0,0.047014572,18.40536308,0.637863636,0
1536693443941479800,3.876551628,-1.40461576,87.19520569,0,0.073511057,18.42326355,0.576415777,0
1536693443961534840,3.876551628,-1.40461576,87.19520569,0,0.094444215,18.4377327,0.537095428,0
1536693444029831288,3.876551628,-1.40461576,87.19520569,0,0.115294866,18.44133568,0.515294969,0
1536693444065081240,3.876551628,-1.40461576,87.19520569,0,0.116603523,18.44765472,0.475185722,0
1536693444142960280,3.876551628,-1.40461576,87.19520569,0,0.135560021,18.44470978,0.428660482,0
1536693444192970168,3.876551628,-1.40461576,87.19520569,0,0.14584516,18.44935608,0.411036879,0
1536693444249254072,2.653158426,-1.490175605,87.77667236,0,0.156124547,18.44419479,0.335267693,0
1536693444271377304,2.653158426,-1.490175605,87.77667236,0,0.179637343,18.44619751,0.263691843,0
1536693444340924216,2.653158426,-1.490175605,87.77667236,0,0.196384385,18.43712044,0.201149762,0
1536693444413705176,2.653158426,-1.490175605,87.77667236,0,0.214666754,18.4420166,0.153497651,0
1536693444471375992,2.653158426,-1.490175605,87.77667236,0,0.259518296,18.44012451,0.085481927,0
1536693444498243000,2.653158426,-1.490175605,87.77667236,0,0.259895533,18.44046402,0.068730213,0
1536693444550286424,1.742990375,-0.861417949,88.15391541,0,0.316830605,18.43196297,0.040175688,0
1536693444562072952,1.742990375,-0.861417949,88.15391541,0,0.325401396,18.4294796,0.023207204,0
1536693444630813912,1.742990375,-0.861417949,88.15391541,0,0.352630407,18.41927338,-0.003615688,0
1536693444681410936,1.742990375,-0.861417949,88.15391541,0,0.379851431,18.4199276,-0.033482503,0
1536693444730718840,1.742990375,-0.861417949,88.15391541,0,0.400230944,18.41042709,-0.083992355,0
1536693444764783960,1.742990375,-0.861417949,88.15391541,0,0.440276593,18.40258026,-0.131811783,0
1536693444823795096,1.742990375,-0.861417949,88.15391541,0,0.448623627,18.39621544,-0.152280375,0
1536693444861281752,1.742990375,-0.861417949,88.15391541,0,0.465318292,18.38218117,-0.181629449,0
1536693444946020056,1.742990375,-0.861417949,88.15391541,0,0.467649311,18.37768745,-0.182697862,0
1536693444984243928,-0.543358386,-0.123554923,87.64398956,0,0.476732075,18.36416435,-0.189093098,0
1536693445018779192,-0.543358386,-0.123554923,87.64398956,0,0.468436599,18.35870743,-0.208405897,0
1536693445065224312,-0.543358386,-0.123554923,87.64398956,0,0.478538662,18.34443665,-0.22772865,0
1536693445110491960,-0.543358386,-0.123554923,87.64398956,0,0.467807919,18.32876015,-0.251018494,0
1536693445163099480,-0.543358386,-0.123554923,87.64398956,0,0.472355604,18.31893539,-0.261945069,0
1536693445201985272,-0.543358386,-0.123554923,87.64398956,0,0.473715067,18.30273628,-0.286785275,0
1536693445289353208,-0.543358386,-0.123554923,87.64398956,0,0.48442331,18.29769516,-0.289947063,0
1536693445326722232,-0.543358386,-0.123554923,87.64398956,0,0.480815381,18.27922821,-0.34036094,0
1536693445357284952,2.825142622,0.474906802,86.5111618,0,0.48813802,18.26963043,-0.357630044,0
1536693445397528120,2.825142622,0.474906802,86.5111618,0,0.491154343,18.24969482,-0.401127696,0
1536693445461458360,2.825142622,0.474906802,86.5111618,0,0.504311383,18.22907448,-0.39686355,0
1536693445520151064,2.825142622,0.474906802,86.5111618,0,0.506176889,18.20640564,-0.398993254,0
1536693445587333944,2.825142622,0.474906802,86.5111618,0,0.521684229,18.18501472,-0.403873712,0
1536693445602334456,2.825142622,0.474906802,86.5111618,0,0.516401112,18.17730141,-0.415864766,0
1536693445642406040,2.825142622,0.474906802,86.5111618,0,0.512604773,18.1397419,-0.451141477,0
1536693445709440568,4.591022491,1.196558356,85.33644867,0,0.514187038,18.11738014,-0.444088548,0
1536693445726876632,4.591022491,1.196558356,85.33644867,0,0.513110042,18.10631752,-0.444665253,0
1536693445796990712,4.591022491,1.196558356,85.33644867,0,0.521029592,18.09938431,-0.421390921,0
1536693445816439384,4.591022491,1.196558356,85.33644867,0,0.512708604,18.08618546,-0.405608952,0
1536693445893946040,4.591022491,1.196558356,85.33644867,0,0.518106937,18.06502914,-0.348863572,0
1536693445948953432,4.591022491,1.196558356,85.33644867,0,0.519667029,18.05701828,-0.335217029,0
1536693445963612696,4.591022491,1.196558356,85.33644867,0,0.515890837,18.03896332,-0.294680744,0
1536693446044978840,4.591022491,1.196558356,85.33644867,0,0.520546794,18.03000641,-0.272031695,0
1536693446084515064,4.591022491,1.196558356,85.33644867,0,0.503875494,18.01692009,-0.2734586,0
1536693446110681176,4.591022491,1.196558356,85.33644867,0,0.486980319,17.99636459,-0.252193063,0
1536693446167085080,4.591022491,1.196558356,85.33644867,0,0.482676953,17.98819733,-0.23624213,0
1536693446200410040,4.102070332,1.095312953,86.21351624,0,0.467393547,17.98094177,-0.187602401,0
1536693446237379768,4.102070332,1.095312953,86.21351624,0,0.457342982,17.97505951,-0.152230337,0
1536693446320548824,4.102070332,1.095312953,86.21351624,0,0.448324978,17.9689827,-0.144492596,0
1536693446334820888,4.102070332,1.095312953,86.21351624,0,0.417574346,17.96327782,-0.115339205,0
1536693446418828888,4.102070332,1.095312953,86.21351624,0,0.388166875,17.95405388,-0.082154214,0
1536693446473739512,4.102070332,1.095312953,86.21351624,0,0.36120078,17.94406319,-0.083985813,0
1536693446506062776,4.102070332,1.095312953,86.21351624,0,0.354945898,17.9410553,-0.075975358,0
1536693446553032696,4.102070332,1.095312953,86.21351624,0,0.318393499,17.93578339,-0.063384116,0
1536693446624241336,4.911493778,0.541586697,86.56742859,0,0.306973338,17.93832397,-0.070370845,0
1536693446675830648,4.911493778,0.541586697,86.56742859,0,0.255347073,17.9379406,-0.122185074,0
1536693446731250680,4.911493778,0.541586697,86.56742859,0,0.222057551,17.93263626,-0.1504509,0
1536693446759118040,4.911493778,0.541586697,86.56742859,0,0.221706808,17.93492126,-0.148499593,0
1536693446796997432,4.911493778,0.541586697,86.56742859,0,0.177039221,17.93351555,-0.1551148,0
1536693446867688056,4.911493778,0.541586697,86.56742859,0,0.154243976,17.94378471,-0.105444603,0
1536693446899900760,4.911493778,0.541586697,86.56742859,0,0.132090971,17.94750214,-0.05707949,0
1536693446922212824,4.911493778,0.541586697,86.56742859,0,0.095300138,17.94916725,-0.013309294,0
1536693447006076920,7.786218643,-0.116755359,86.16418457,0,0.073501825,17.95976639,0.018189684,0
1536693447038793912,7.786218643,-0.116755359,86.16418457,0,0.043081243,17.96922874,0.064469568,0
1536693447076348312,7.786218643,-0.116755359,86.16418457,0,0.037134107,17.97095108,0.08924605,0
1536693447151521944,7.786218643,-0.116755359,86.16418457,0,0.027249476,17.97793579,0.104893751,0
1536693447161742808,7.786218643,-0.116755359,86.16418457,0,-0.010176907,17.99432945,0.177974597,0
1536693447217621784,8.264129639,-0.440152764,86.21385956,0,-0.020963447,18.00855255,0.194846973,0
1536693447257401624,8.264129639,-0.440152764,86.21385956,0,-0.027354408,18.00877762,0.214257434,0
1536693447322128600,8.264129639,-0.440152764,86.21385956,0,-0.042254876,18.0223732,0.245861292,0
1536693447391498808,8.264129639,-0.440152764,86.21385956,0,-0.055156574,18.02520561,0.254318535,0
1536693447432202936,8.264129639,-0.440152764,86.21385956,0,-0.08388336,18.04395294,0.268399656,0
1536693447503895128,8.264129639,-0.440152764,86.21385956,0,-0.106382146,18.05842972,0.263632685,0
1536693447555147256,7.449193954,-1.158542275,86.90906525,0,-0.133504868,18.07184792,0.263434768,0
1536693447579614744,7.449193954,-1.158542275,86.90906525,0,-0.16449222,18.07780457,0.26808399,0
1536693447669112952,7.449193954,-1.158542275,86.90906525,0,-0.20063509,18.09824371,0.264428467,0
1536693447718988440,7.449193954,-1.158542275,86.90906525,0,-0.236510754,18.11685562,0.272570759,0
1536693447767420408,7.449193954,-1.158542275,86.90906525,0,-0.266976297,18.1192379,0.287870646,0
1536693447797795672,7.449193954,-1.158542275,86.90906525,0,-0.318029672,18.13699722,0.303675234,0
1536693447837682328,7.449193954,-1.158542275,86.90906525,0,-0.344101995,18.15114784,0.302654088,0
1536693447888854456,6.888085365,-1.650532246,87.97172546,0,-0.397963822,18.16341209,0.287371844,0
1536693447973153560,6.888085365,-1.650532246,87.97172546,0,-0.486713618,18.19193459,0.264585316,0
1536693448021643256,6.888085365,-1.650532246,87.97172546,0,-0.547853708,18.20870209,0.233846366,0
1536693448079140760,6.888085365,-1.650532246,87.97172546,0,-0.600126863,18.2138176,0.228301033,0
1536693448113537272,6.888085365,-1.650532246,87.97172546,0,-0.619740486,18.22164726,0.286770672,0
1536693448161404120,6.888085365,-1.650532246,87.97172546,0,-0.654174924,18.23319054,0.331036538,0
1536693448228856824,6.888085365,-1.650532246,87.97172546,0,-0.671749949,18.23996544,0.366550267,0
1536693448265042168,6.888085365,-1.650532246,87.97172546,0,-0.733105958,18.25602341,0.411747932,0
1536693448331342744,6.888085365,-1.650532246,87.97172546,0,-0.765633941,18.26974297,0.443643659,0
1536693448373685240,8.855633736,-1.754263043,89.30461121,0,-0.805909872,18.27885818,0.468763411,0
1536693448442964280,8.855633736,-1.754263043,89.30461121,0,-0.8283813,18.28800774,0.472915143,0
1536693448478963608,8.855633736,-1.754263043,89.30461121,0,-0.885700166,18.30031967,0.456136912,0
1536693448554699800,8.855633736,-1.754263043,89.30461121,0,-0.9277426,18.31835747,0.441978127,0
1536693448568401592,8.855633736,-1.754263043,89.30461121,0,-0.994594395,18.32875824,0.432567805,0
1536693448620964920,8.855633736,-1.754263043,89.30461121,0,-1.083251953,18.34340858,0.419748276,0
1536693448670988280,8.855633736,-1.754263043,89.30461121,0,-1.167623639,18.36365891,0.414783746,0
1536693448734882488,8.855633736,-1.754263043,89.30461121,0,-1.2420187,18.36779213,0.391479522,0
1536693448783803192,10.80678654,-1.349208713,89.40441895,0,-1.312486053,18.38274193,0.369336456,0
1536693448838225368,10.80678654,-1.349208713,89.40441895,0,-1.460163355,18.39153481,0.303800553,0
1536693448874528952,10.80678654,-1.349208713,89.40441895,0,-1.611149788,18.40546608,0.235430211,0
1536693448925912888,10.80678654,-1.349208713,89.40441895,0,-1.666953325,18.4048233,0.212162375,0
1536693448965427384,10.80678654,-1.349208713,89.40441895,0,-1.811593175,18.40987968,0.184194401,0
1536693449019243000,10.80678654,-1.349208713,89.40441895,0,-1.931907058,18.41075516,0.18307963,0
1536693449072937496,10.80678654,-1.349208713,89.40441895,0,-2.154974222,18.41069412,0.180330947,0
1536693449140651032,10.80678654,-1.349208713,89.40441895,0,-2.284193993,18.40719223,0.172367185,0
1536693449186515384,10.80678654,-1.349208713,89.40441895,0,-2.398640156,18.40660477,0.165998116,0
1536693449236573272,14.98249435,-1.455354691,92.14418793,0,-2.550318718,18.40763092,0.151124537,0
1536693449283552984,14.98249435,-1.455354691,92.14418793,0,-2.773937941,18.3924675,0.115386151,0
1536693449346778872,14.98249435,-1.455354691,92.14418793,0,-3.090276718,18.37585831,0.095791973,0
1536693449360983832,14.98249435,-1.455354691,92.14418793,0,-3.40729475,18.3570137,0.067427166,0
1536693449417450264,14.98249435,-1.455354691,92.14418793,0,-3.595451593,18.34421539,0.058584366,0
1536693449474225016,14.98249435,-1.455354691,92.14418793,0,-3.686925411,18.33333397,0.056964066,0
1536693449528107448,20.42643166,-1.149689794,94.49554443,0,-3.933440685,18.30909348,0.073940948,0
1536693449587831160,20.42643166,-1.149689794,94.49554443,0,-4.124132156,18.290308,0.087612294,0
1536693449621134008,20.42643166,-1.149689794,94.49554443,0,-4.416326046,18.24687195,0.085824266,0
1536693449668379288,20.42643166,-1.149689794,94.49554443,0,-4.695471764,18.21121979,0.104960956,0
1536693449720043384,20.42643166,-1.149689794,94.49554443,0,-4.978987694,18.16306877,0.137696236,0
1536693449759281016,20.42643166,-1.149689794,94.49554443,0,-5.056128979,18.1509037,0.145146802,0
1536693449819937624,20.42643166,-1.149689794,94.49554443,0,-5.352871895,18.10229874,0.180980191,0
1536693449902612952,20.42643166,-1.149689794,94.49554443,0,-5.563635349,18.06139374,0.189933464,0
1536693449925607512,20.42643166,-1.149689794,94.49554443,0,-5.669419289,18.03809547,0.199514583,0
1536693449947187576,20.42643166,-1.149689794,94.49554443,0,-6.187045574,17.93202972,0.259103864,0
1536693450012068472,20.42643166,-1.149689794,94.49554443,0,-6.53207159,17.85637283,0.280223399,0
1536693450046810968,30.00564003,-0.814738214,99.35023499,0,-6.780499458,17.79326439,0.283965558,0
1536693450108961720,30.00564003,-0.814738214,99.35023499,0,-7.375361443,17.6364727,0.29124251,0
1536693450162734296,30.00564003,-0.814738214,99.35023499,0,-7.897647381,17.487854,0.280351907,0
1536693450218850072,30.00564003,-0.814738214,99.35023499,0,-8.038196564,17.44582367,0.270771831,0
1536693450245217048,30.00564003,-0.814738214,99.35023499,0,-8.585341454,17.26593399,0.224360496,0
1536693450302181080,30.00564003,-0.814738214,99.35023499,0,-8.721011162,17.22034454,0.212889224,0
1536693450313783000,30.00564003,-0.814738214,99.35023499,0,-9.127539635,17.07529259,0.198244751,0
1536693450367107736,30.00564003,-0.814738214,99.35023499,0,-9.415703774,16.96314049,0.186481386,0
1536693450433543512,34.84141159,-1.132368565,105.0149384,0,-9.842847824,16.79169464,0.158924073,0
1536693450499776184,34.84141159,-1.132368565,105.0149384,0,-9.995895386,16.72869492,0.146747231,0
1536693450523777176,34.84141159,-1.132368565,105.0149384,0,-10.87007141,16.34071732,0.095702179,0
1536693450558787320,34.84141159,-1.132368565,105.0149384,0,-11.46551037,16.06123161,0.076913908,0
1536693450637638936,34.84141159,-1.132368565,105.0149384,0,-11.92126656,15.83218765,0.05883849,0
1536693450691371000,34.84141159,-1.132368565,105.0149384,0,-12.36535168,15.59376907,0.02354808,0
1536693450711543992,34.84141159,-1.132368565,105.0149384,0,-12.8341713,15.31263351,-0.053586472,0
